stop_id;stop_name;stop_lat;stop_lon;stop_code;location_type;parent_station;wheelchair_boarding;stop_direction
2133;Örs vezér tere M+H, déli tárolótér;47.500366;19.135700;;;;;
2138;Kőbánya alsó vasútállomás;47.483139;19.127891;;;;2;
3002;Puskás Ferenc Stadion M;47.500368;19.103406;;;;;
3103;Káposztásmegyer, Mogyoródi-patak;47.598778;19.121447;;;;;
3105;Bécsi út / Vörösvári út;47.548817;19.029722;;;;2;
3106;Örs vezér tere M+H, északi tároló;47.505160;19.136637;;;;;
3118;Óbuda, Bogdáni út;47.551471;19.041971;;;;2;
4716;ÉD metró járműtelep,porta;47.469651;19.129090;;;;2;
4903;Örs vezér tere;47.503480;19.137211;4903;;CSLM2OVE;2;
5924;Mill.FAV járműtelep (kapu);47.518788;19.093168;;;;;
6390;Cinkota kocsiszín (kapu);47.519345;19.217072;;;;;
7177;Csepel kocsiszín (kapu);47.421498;19.066247;;;;;
7675;Dunaharaszti külső kocsiszín (kapu);47.362751;19.088475;;;;;
7724;Csömör;47.544971;19.225038;7724;;CSF04655;2;
7736;Gödöllő;47.593332;19.357761;7736;;CSF04679;2;
7762;Szentendre kocsiszín (kapu);47.658755;19.072392;;;;;
7817;Márta utca;47.429184;18.929497;;;;2;160
7877;Bíróság;47.519544;18.978060;;;;1;-78
7878;Bíróság;47.519418;18.978021;;;;1;102
7879;Római úti lakótelep, Varsa utca;47.570863;19.058543;;;;2;99
7880;Bécsi út / Vörösvári út;47.547562;19.028729;;;;1;
7881;Váradi utca;47.543722;19.030125;;;;1;-10
7882;Váradi utca;47.542679;19.029953;;;;1;168
7883;Perényi út;47.545800;19.029579;;;;1;-9
7884;Deák Ferenc tér M;47.497413;19.055158;;;;1;
7885;Dorottya utca (Vörösmarty tér M);47.497476;19.049623;;;;1;-128
7887;Mester utca / Ferenc körút;47.482246;19.068716;;;;2;15
7888;Mester utca / Ferenc körút;47.482570;19.068477;;;;2;-163
7890;Mester utca / Ferenc körút;47.481671;19.068782;;;;2;123
7897;Kelenföld vasútállomás M;47.464572;19.022964;;;;1;99
7898;Kelenföld vasútállomás M;47.464653;19.023017;;;;1;100
7899;Kelenföld vasútállomás M;47.464770;19.023003;7899;;CS007899;2;
7900;Maros utcai rendelőintézet;47.503724;19.022401;;;;1;144
7902;Újpest-városkapu M;47.558600;19.078220;;;;1;56
7913;526. sor;47.479281;19.211332;;;;2;118
7914;526. sor;47.479300;19.211468;;;;2;-62
7919;Pólus Center;47.552544;19.143552;;;;2;-138
7923;Kele utca;47.431808;19.173804;;;;1;34
7924;Ültetvény utca;47.396895;19.175423;;;;2;45
7927;Ferihegy vasútállomás;47.438423;19.222716;;;;1;-43
7928;Ferihegy vasútállomás;47.437667;19.223377;;;;1;134
7930;Savoyai Jenő tér (Törley tér);47.430333;19.036354;;;;1;-101
7931;Savoyai Jenő tér (Törley tér);47.430369;19.036792;;;;1;-99
7949;Kocsis Sándor út;47.574343;19.013009;;;;1;180
7950;Keleti pályaudvar M;47.501104;19.082712;;;;1;-130
7967;Kelenföld vasútállomás M;47.465732;19.021875;;;;1;
7968;Mogyoród útja;47.570602;19.128267;;;;1;37
7972;Hűvösvölgy;47.543009;18.964481;;;;2;163
7974;Hűvösvölgy;47.542605;18.964773;;;;1;144
7975;Hűvösvölgy;47.543243;18.964281;;;;2;
7976;Hűvösvölgy;47.543264;18.963995;;;;2;-40
7977;Hűvösvölgy;47.542968;18.964195;;;;2;-29
7978;Hűvösvölgy;47.542707;18.964355;;;;2;-29
7979;Vörösmarty utca M;47.507468;19.066509;;;;2;-135
7980;Vörösmarty utca M;47.507444;19.066767;;;;2;45
7995;Jókai Mór utca;47.410717;19.020681;;;;2;-32
7996;Budatétény vasútállomás (Campona);47.405720;19.013837;;;;1;-25
7997;Budatétény vasútállomás (Campona);47.405972;19.014129;;;;1;-66
7998;Budatétény vasútállomás (Campona);47.405711;19.014354;;;;1;-55
7999;Budatétény vasútállomás (Campona);47.405702;19.014155;;;;1;-174
8003;Budagyöngye;47.515894;18.999506;;;;2;-30
8005;Móricz Zsigmond körtér M;47.477023;19.047527;;;;1;18
8018;Örs vezér tere M+H, új tárolótér;47.500933;19.135714;;;;2;
8020;Örs vezér tere M+H;47.500932;19.136306;;;;1;
8021;Örs vezér tere M+H;47.501940;19.136228;;;;1;-33
8022;Örs vezér tere M+H;47.501517;19.136333;;;;1;-9
8023;Örs vezér tere M+H;47.501472;19.136134;;;;1;169
8024;Örs vezér tere M+H;47.501148;19.136213;;;;1;165
8025;Örs vezér tere M+H;47.501778;19.135922;;;;1;-14
8026;Örs vezér tere M+H;47.501355;19.136028;;;;1;-4
8028;Örs vezér tere M+H;47.501112;19.135882;;;;1;137
8029;Örs vezér tere M+H;47.502111;19.135697;;;;1;-102
8030;Örs vezér tere M+H;47.501742;19.135604;;;;1;-12
8036;Kőbányai út 31.;47.487461;19.104252;;;;1;-68
8037;Kőbányai út 31.;47.487452;19.103721;;;;1;112
8040;Tas vezér utca;47.478606;19.040827;;;;2;109
8041;Tas vezér utca;47.478849;19.040827;;;;1;-71
8047;Lajosmizsei sorompó;47.450468;19.161410;;;;2;-59
8050;Liptó utca;47.486100;19.007031;;;;2;-147
8051;Liptó utca;47.486010;19.007071;;;;2;32
8067;Szent Imre tér;47.430889;19.070300;;;;1;-175
8080;Göncz Árpád városközpont M;47.534584;19.067859;;;;1;
8086;Széll Kálmán tér M;47.507313;19.026381;;;;1;42
8087;Fény utcai piac;47.508464;19.023646;;;;1;-84
8090;Móricz Zsigmond körtér M;47.477256;19.048786;;;;1;107
8093;Dél-pesti autóbuszgarázs;47.426707;19.161776;;;;1;-121
8094;Dél-pesti autóbuszgarázs;47.426160;19.160940;;;;1;57
8095;Nagykőrösi út;47.425255;19.157029;;;;2;-106
8096;Nagykőrösi út;47.425183;19.157506;;;;2;73
8098;Szabina út;47.436450;19.013416;;;;2;-168
8099;Pék utca;47.442037;19.018742;;;;2;108
8100;Pék utca;47.442184;19.018652;;;;2;-72
8101;Rózsavölgy felső;47.441102;19.022349;;;;2;121
8102;Rózsavölgy felső;47.441120;19.022627;;;;2;-59
8103;Rózsavölgy alsó;47.438280;19.030491;;;;2;-69
8104;Rózsavölgy alsó;47.438270;19.029987;;;;2;105
8106;Vihar utca;47.434282;19.035651;;;;1;142
8109;Damjanich utca;47.402518;18.991053;;;;1;22
8110;Barosstelep vasútállomás;47.399613;18.990911;;;;1;-91
8111;Barackos út / Angeli utca;47.402248;18.974427;;;;1;-126
8112;Szakiskola utca;47.404920;18.975841;;;;2;176
8113;Szilvafa utca;47.405214;18.982168;;;;2;-94
8114;Mátyás király utca;47.404326;18.990746;;;;2;-59
8115;Szebeni utca;47.430338;19.016061;;;;2;-81
8116;Szebeni utca;47.430177;19.016896;;;;2;99
8119;Mátra utca;47.400093;18.997693;;;;2;-103
8120;Budatétény vasútállomás (Campona);47.405630;19.013784;;;;2;-45
8124;Zöldike utca;47.430738;19.012823;;;;2;-80
8125;Zöldike utca;47.431205;19.012359;;;;2;154
8126;Hír utca;47.432896;19.011523;;;;2;13
8127;Hír utca;47.432914;19.011403;;;;2;-167
8128;Ady Endre út;47.435802;19.036578;;;;2;-25
8132;Puskás Ferenc Stadion M;47.501283;19.107691;;;;1;163
8146;Vajda Péter utca;47.481389;19.103174;;;;1;-152
8147;Vajda Péter utca;47.481770;19.103619;;;;1;31
8148;Kőbányai út / Könyves Kálmán körút;47.485742;19.107077;;;;1;-152
8149;Kőbányai út / Könyves Kálmán körút;47.486236;19.107515;;;;1;25
8150;Zsil utca;47.482940;19.062984;;;;2;-44
8152;Mester utca / Könyves Kálmán körút;47.469596;19.083728;;;;1;-110
8153;Mester utca / Könyves Kálmán körút;47.469723;19.084482;;;;1;69
8155;Közvágóhíd H;47.468737;19.072756;;;;1;-94
8156;Új köztemető;47.473586;19.178326;;;;1;-8
8164;Örs vezér tere M+H;47.501382;19.136585;;;;1;135
8165;Örs vezér tere M+H;47.501849;19.136467;;;;1;170
8168;I. utca;47.400994;19.002739;;;;1;-106
8169;I. utca;47.400904;19.003494;;;;1;85
8170;Angeli utca / Nagytétényi út;47.390622;18.981000;;;;1;58
8174;Népliget M;47.475842;19.100499;;;;2;
8175;Népliget, tároló;47.475832;19.100183;;;;2;
8181;Cinkotai autóbuszgarázs;47.498562;19.237779;;;;2;66
8187;Batthyány tér;47.506776;19.039318;8187;;CSF00062;2;
8206;Mexikói út M;47.519261;19.091048;;;;1;
8209;Nagy Lajos király útja / Czobor utca;47.522170;19.102815;;;;1;114
8218;Széchenyi István tér;47.499014;19.047022;;;;2;165
8222;Örs vezér tere M+H;47.503684;19.136443;;;;1;168
8238;Széchenyi István tér;47.500543;19.046690;;;;1;-111
8239;Müpa - Nemzeti Színház H;47.471165;19.073129;;;;1;149
8240;Müpa - Nemzeti Színház H;47.471354;19.073301;;;;1;-30
8241;Szőnyi út;47.526625;19.096220;;;;1;-54
8242;Teleki Blanka utca;47.523865;19.093761;;;;1;-158
8243;Szántóföld utca;47.572244;19.138830;;;;2;-144
8245;Kolozsvár utcai piac;47.536842;19.114916;;;;1;-136
8246;Rákospalotai köztemető;47.551240;19.136010;;;;2;-50
8260;Nagybányai út;47.528476;18.996294;;;;1;-110
8261;Nagybányai út;47.528368;18.996467;;;;1;70
8262;Hidegkuti Nándor Stadion;47.490690;19.108910;;;;1;-180
8265;Közvágóhíd H;47.468737;19.073486;;;;1;89
8267;Szentlőrinci út;47.424625;19.157703;;;;1;-126
8269;Delej utca;47.484694;19.096209;;;;1;-64
8270;Delej utca;47.484460;19.096407;;;;1;116
8271;Szentendre;47.661038;19.075607;;;;2;
8272;Közvágóhíd;47.466285;19.077170;;;;2;
8280;Infopark (Pázmány Péter sétány);47.469242;19.064333;;;;1;177
8283;Óceán-árok utca;47.589986;19.100345;;;;1;-122
8284;Óceán-árok utca;47.590345;19.101781;;;;1;56
8286;Népliget M;47.476294;19.099288;;;;1;23
8287;Népliget M;47.476345;19.098937;;;;1;-152
8289;Szilágyi utca;47.570877;19.111330;;;;1;-70
8317;Bartók Béla utca;47.433298;18.919575;;;;2;-132
8318;Raktárváros;47.441547;18.938276;;;;2;-123
8319;Raktárváros;47.441566;18.938608;;;;2;57
8322;Harangláb;47.431924;18.914078;;;;2;130
8323;Károlyi utca;47.437690;18.899546;;;;2;132
8324;Tükörhegy;47.436382;18.927085;;;;2;-125
8325;Tükörhegy;47.436211;18.926992;;;;2;55
8326;Ady Endre utca;47.435045;18.906261;;;;1;116
8328;Törökbálint Sportközpont;47.440051;18.895734;;;;2;-49
8329;Törökbálint Sportközpont;47.440284;18.895177;;;;2;132
8330;Határ utca;47.445284;18.894300;;;;2;-1
8331;Határ utca;47.444924;18.894036;;;;2;-154
8332;Hosszúrét utca;47.446066;18.881264;;;;2;172
8333;Törökbálint, bevásárlóközpont;47.443242;18.887398;;;;2;25
8336;Növény utca;47.402071;19.015810;;;;2;54
8337;Növény utca;47.402125;19.015254;;;;2;-127
8339;Budaörsi lakótelep;47.455746;18.940232;;;;1;133
8341;Templom tér;47.542367;19.130057;;;;2;165
8344;Királyhágó tér;47.495421;19.018729;;;;1;130
8345;Katona József utca;47.438346;18.906478;;;;2;139
8353;Észak-Pesti Kórház;47.539377;19.122388;;;;2;46
8359;Óbudai autóbuszgarázs;47.567996;19.026302;8359;;CSF00678;1;
8360;Óbudai autóbuszgarázs;47.568290;19.026730;;;;2;
8365;Bécsi út / Vörösvári út;47.548489;19.028941;8365;;CSF00568;1;
8377;Nagykőrösi út / Határ út;47.456450;19.114660;;;;2;-83
8379;Kőbánya alsó vasútállomás;47.483885;19.127207;;;;2;-31
8380;Kőbánya alsó vasútállomás;47.483256;19.128130;;;;2;137
8381;Kőbánya alsó vasútállomás;47.484011;19.127574;;;;2;-114
8382;Örs vezér tere M+H;47.502448;19.136843;;;;1;-9
8383;Örs vezér tere M+H;47.502623;19.136654;;;;1;167
8385;Rákospalota, MÁV-telep;47.541308;19.121443;;;;1;
8399;Pestszentimre vasútállomás;47.404222;19.186489;;;;1;-140
8400;Dunakeszi, Auchan áruház;47.608972;19.117347;;;;2;110
8402;Kert sor;47.591122;19.045358;;;;1;23
8403;Kert sor;47.591374;19.045384;;;;1;-157
8404;Csillaghegy H;47.584817;19.042061;;;;1;20
8405;Csillaghegy H;47.584781;19.041862;;;;1;-159
8406;Forrásliget lakópark;47.581093;19.037502;;;;1;51
8407;Forrásliget lakópark;47.581363;19.037795;;;;1;-129
8408;Ürömhegyi lejtő;47.577645;19.032198;;;;2;14
8409;Ürömhegyi lejtő;47.577663;19.032065;;;;2;-166
8410;Aranyhegyi lejtő;47.572593;19.030301;;;;2;14
8411;Aranyhegyi lejtő;47.572512;19.030128;;;;2;-166
8412;Bécsi út / Vörösvári út;47.548471;19.029180;;;;1;0
8426;Káposztásmegyer, Szilas-patak;47.577405;19.114927;;;;2;10
8428;Budakalász, Budai út;47.617063;19.051534;;;;2;-48
8429;Budakalász, Budai út;47.616729;19.051767;;;;2;145
8430;Budakalász, Lenfonó H;47.620304;19.046374;;;;1;-10
8431;Budakalász, Lenfonó H;47.621800;19.045662;;;;1;167
8432;Szentistvántelep H;47.628444;19.043367;;;;2;-18
8433;Szentistvántelep H;47.627055;19.043879;;;;2;163
8434;Pomáz H;47.643897;19.030357;;;;1;-39
8435;Pomáz H;47.642594;19.031459;;;;2;128
8436;Szentendre, Papírgyár;47.648965;19.069449;;;;1;17
8437;Papírgyár;47.647762;19.069061;;;;1;177
8438;Egyetem;47.652306;19.071738;;;;1;26
8439;Egyetem;47.652067;19.071331;;;;1;-154
8440;Gubacsi út / Határ út;47.443626;19.096848;;;;1;42
8447;Dióskert;47.425630;18.911984;;;;2;-117
8455;Jászai Mari tér;47.512811;19.047938;;;;2;
8458;Tisza István tér;47.517230;19.107350;;;;1;-43
8459;Uzsoki Utcai Kórház;47.519822;19.103742;;;;1;-42
8460;Uzsoki Utcai Kórház;47.519642;19.103436;;;;1;136
8461;Erzsébet királyné útja / Róna utca;47.521615;19.101317;;;;1;-39
8462;Bretzfeld utca;47.460536;18.945898;;;;1;153
8469;Gubacsi út / Határ út;47.444418;19.096583;;;;2;
8471;Dél-pesti autóbuszgarázs;47.426556;19.160782;;;;1;140
8472;Dél-pesti autóbuszgarázs;47.426744;19.161140;;;;1;-24
8479;Homokbánya utca;47.399559;18.941035;;;;2;-42
8480;Petőfi Sándor utca;47.402470;18.937784;;;;1;46
8481;Soroksár felső H;47.409980;19.111405;;;;1;171
8486;Csonka János tér;47.470070;19.044795;;;;1;-167
8490;Határ út M;47.464573;19.126164;;;;1;148
8491;Jászberényi út;47.485549;19.192668;;;;2;10
8498;Aszódi utca;47.463484;19.100991;;;;1;146
8499;Közterületfenntartó Zrt.;47.467861;19.106659;;;;1;-149
8500;Ecseri út M;47.470487;19.108771;;;;2;-150
8501;Ferencvárosi rendelőintézet;47.476723;19.074856;;;;1;-119
8518;Tímár utca H;47.533275;19.043766;;;;2;
8519;Tímár utca H;47.533299;19.043582;;;;1;-146
8520;Szentlélek tér H;47.539343;19.047088;;;;2;
8521;Serfőző utca;47.538309;19.046968;;;;1;178
8535;Cinkotai autóbuszgarázs;47.498185;19.237392;;;;1;60
8543;Szépvölgyi út H;47.528670;19.040460;;;;2;
8544;Szépvölgyi út H;47.527615;19.040037;;;;1;-168
8545;Puskás Ferenc Stadion M;47.500105;19.107013;;;;1;-97
8546;Boráros tér H;47.479738;19.067812;;;;2;168
8548;Gyál, Bem József utca;47.372917;19.216769;;;;1;132
8549;Kisfaludy Sándor utca;47.375008;19.213611;;;;2;134
8550;Toldi Miklós utca;47.377334;19.210016;;;;2;133
8551;Bacsó Béla utca;47.379533;19.206672;;;;1;133
8552;Erdősor utca;47.383056;19.201876;;;;2;-138
8553;Bajcsy-Zsilinszky utca;47.385653;19.204449;;;;2;135
8559;Korompai utca;47.484860;19.012485;;;;1;-97
8560;Korompai utca;47.484789;19.012843;;;;1;83
8567;Gazdagréti tér;47.473277;18.992780;;;;1;63
8569;Cinkotai autóbuszgarázs;47.498194;19.237086;;;;2;-121
8575;Távíró utca;47.461082;19.119025;;;;1;41
8577;Rákoshegy vasútállomás;47.467934;19.244806;;;;1;-82
8587;Gyáli út;47.456472;19.111009;;;;2;-103
8588;Gyáli út;47.456293;19.110359;;;;2;77
8589;Gyáli út;47.466010;19.103474;;;;1;-38
8590;Szent Gellért tér - Műegyetem M;47.483337;19.053086;;;;1;-149
8591;Szent Gellért tér - Műegyetem M;47.483616;19.053537;;;;1;35
8593;Móricz Zsigmond körtér M;47.476836;19.047188;;;;1;-174
8597;Sport utca;47.455942;18.948108;;;;1;175
8598;Baross utca;47.460313;18.958511;;;;1;-9
8605;Kolosy tér;47.527543;19.036916;;;;1;96
8642;Székesdűlő;47.611641;19.105779;;;;1;56
8643;Székesdűlő;47.610940;19.103504;;;;1;-119
8644;Vízművek;47.599539;19.092791;;;;2;34
8645;Vízművek;47.600312;19.093310;;;;2;-147
8646;Áruházi bekötőút;47.386510;19.022630;;;;1;-119
8647;Áruházi bekötőút;47.386519;19.023121;;;;1;64
8649;Székesdűlő, ipartelep;47.615137;19.109255;;;;2;22
8650;Székesdűlő, ipartelep;47.614750;19.108806;;;;2;-158
8651;Auchan Sziget áruház;47.384361;19.025810;;;;1;153
8652;Auchan Sziget áruház;47.384163;19.025969;;;;1;153
8670;Auchan Liget;47.541205;19.247030;;;;2;135
8681;Hidegkuti Nándor Stadion;47.490533;19.110469;;;;2;
8684;Albertfalva kitérő;47.452693;19.038524;;;;2;-168
8685;Albertfalva kitérő;47.452801;19.038961;;;;2;9
8692;Felsőcsatári köz;47.458756;19.177096;;;;1;-173
8694;Köztelek utca;47.486933;19.067178;;;;2;122
8697;Újpest-központ M;47.560733;19.090125;;;;1;27
8702;Ferencvárosi rendelőintézet;47.477155;19.075785;;;;2;134
8708;Vízművek lakótelep;47.597822;19.091606;;;;2;22
8724;Albertirsai út;47.500874;19.116122;;;;2;
8725;Puskás Ferenc Stadion M;47.499864;19.104836;;;;1;-115
8731;Budagyöngye;47.516074;18.998922;;;;2;119
8736;Dániel út;47.512863;18.994978;;;;2;-57
8737;Dániel út;47.512881;18.994739;;;;2;125
8740;Újbuda-központ M;47.474683;19.046385;;;;1;-166
8750;Batthyány tér M+H;47.505696;19.039323;;;;1;176
8754;Pestszentimre vasútállomás (Dózsa Gy.u.);47.403586;19.185688;;;;2;50
8770;Puskás Ferenc Stadion M;47.499864;19.104507;;;;2;
8772;Pestszentlőrinc vasútállomás;47.454622;19.181767;;;;1;122
8775;Ilonatelep H;47.525831;19.228646;;;;2;46
8782;Blaha Lujza tér M;47.496844;19.069066;;;;1;-107
8785;Puskás Ferenc Stadion M;47.499936;19.105237;;;;2;
8788;Kőérberek;47.445299;18.999585;;;;2;-92
8789;Kőérberek;47.445218;19.000036;;;;2;88
8793;Regényes utca;47.429436;19.020658;;;;2;-172
8801;Savoya Park;47.436482;19.040103;;;;1;
8802;Savoya Park;47.435847;19.042385;;;;1;-70
8832;Szakorvosi rendelőintézet;47.443871;19.181125;;;;2;31
8841;Íves út;47.592824;19.107979;;;;1;60
8842;Íves út;47.592582;19.106650;;;;1;-119
8844;Egressy út / Vezér utca;47.519260;19.126312;;;;1;-142
8846;Méhecske utca;47.448032;18.947797;;;;2;176
8847;Méhecske utca;47.447979;18.947970;;;;2;-5
8850;Mikszáth Kálmán utca;47.451162;19.176781;;;;2;-58
8863;Gőzmozdony utca;47.470028;19.157173;;;;1;-143
8864;Savoya Park;47.435991;19.041549;;;;1;106
8893;Csepeli átjáró;47.436339;19.092257;;;;2;-96
8894;Vízisport utca;47.433997;19.091263;;;;2;166
8895;Teremszeg utca;47.432951;19.092221;;;;2;163
8896;Pesterzsébet vasútállomás;47.433417;19.096414;;;;2;85
8898;Szakorvosi rendelő;47.440886;19.101780;;;;2;-38
8900;Göncz Árpád városközpont M;47.531904;19.066158;;;;1;-160
8903;Szentmihályi út;47.541348;19.151940;;;;1;62
8904;Kétújfalu utca;47.419522;19.209134;;;;2;33
8910;Káposztásmegyer, Mogyoródi-patak;47.598321;19.121429;;;;2;101
8911;Homoktövis iskola;47.597226;19.117132;;;;1;49
8912;Hidegkuti Nándor Stadion;47.490255;19.110147;;;;1;81
8915;Jászberényi út / Maglódi út;47.490345;19.148417;;;;1;
8916;Kőbányai garázs;47.490648;19.114424;;;;2;-98
8917;Kőbányai garázs;47.490684;19.113853;;;;2;82
8918;Budatétény, benzinkút;47.430100;19.003628;;;;2;-156
8919;Pongrátz Gergely tér;47.509771;19.128546;;;;1;-49
8921;Dél-pesti autóbuszgarázs;47.426582;19.161021;;;;2;125
8922;Gyula vezér út;47.409242;19.003434;;;;2;-133
8923;Kabai utca;47.495704;19.160464;;;;1;-45
8924;Kabai utca;47.495533;19.160424;;;;1;135
8939;Békásmegyer H;47.598408;19.054259;;;;1;25
8940;Békásmegyer H;47.598633;19.054086;;;;2;-89
8941;Váci út;47.561294;19.079376;;;;1;-75
8942;Örs vezér tere M+H (Kerepesi út);47.503216;19.137571;;;;1;85
8943;Budatétény, benzinkút;47.431018;19.004423;;;;2;21
8944;Újpest-városkapu M (Váci út);47.556577;19.076558;;;;1;17
8945;Újpest-városkapu M (Váci út);47.558092;19.076836;;;;1;-164
8946;Szénás utca;47.527548;19.181565;;;;1;56
8947;Szlovák út;47.530956;19.189157;;;;1;57
8948;Kucorgó tér;47.469303;19.295150;;;;2;170
8949;Pestszentimre vasútáll. (Nagykőrösi út);47.403412;19.186620;;;;1;137
8950;Pestszentimre vasútáll. (Nagykőrösi út);47.404303;19.185682;;;;1;-40
8951;Béke tér;47.430019;19.215675;;;;2;-66
8952;Terv utca;47.408000;19.001541;;;;1;-132
8953;Csillag utca;47.409214;19.119000;;;;2;174
8954;Csillag utca;47.409565;19.119053;;;;2;-8
8955;Gombosszeg köz;47.413107;19.118352;;;;1;-169
8956;Gombosszeg köz;47.413574;19.118578;;;;2;-49
8957;Előd utca;47.418567;19.117365;;;;1;142
8958;Alsó határút;47.416534;19.116568;;;;2;24
8959;Templom utca 6.;47.408876;19.113620;;;;2;167
8960;Gyáli-patak;47.394698;19.116570;;;;2;-145
8961;Soroksár, Hősök tere H;47.399339;19.116483;;;;2;74
8962;Szent István utca H;47.392297;19.115202;;;;2;24
8963;Grassalkovich út;47.390505;19.118896;;;;2;153
8964;Tartsay utca;47.421259;19.127136;;;;1;50
8965;Szent László utca;47.421187;19.126871;;;;1;-132
8966;Szentlőrinci úti lakótelep;47.417227;19.131105;;;;1;-39
8967;Szentlőrinci úti lakótelep;47.416957;19.131198;;;;1;137
8971;Gyula vezér út;47.409629;19.004123;;;;1;34
9000;Kistarcsa H;47.545503;19.259839;;;;2;48
9001;Kistarcsa H;47.545584;19.259693;;;;2;-132
9002;Kerepes H;47.552441;19.270507;;;;2;47
9003;Kerepes H;47.551324;19.268897;;;;2;-132
9004;Szilasligeti elágazás;47.560201;19.283112;;;;2;43
9005;Kerepes, Szabadság útja;47.560786;19.282783;;;;2;136
9006;Szilasligeti elágazás;47.560766;19.283700;;;;2;-129
9007;Szilasliget, Posta;47.569550;19.272176;;;;2;43
9008;Szilasliget, Posta;47.569882;19.272430;;;;2;-134
9009;Szilasliget, Wesselényi utca;47.573117;19.269227;;;;2;-45
9010;Szilasliget, Wesselényi utca;47.572955;19.269240;;;;2;135
9011;Szilasliget, Szondi utca;47.575273;19.266059;;;;2;-44
9012;Szilasliget, Szondi utca;47.575382;19.265687;;;;2;135
9013;Szilasliget, Kemping;47.578226;19.261133;;;;2;125
9014;EGIS-telep (Szentjakab H);47.592911;19.284773;;;;2;-61
9015;EGIS-telep (Szentjakab H);47.592495;19.285583;;;;2;119
9016;Gödöllő, Szökőkút;47.599126;19.346731;;;;2;137
9017;Gödöllő, Szabadság tér H;47.599243;19.346771;;;;2;-43
9018;Gödöllő, Szabadság tér H;47.598050;19.349038;;;;2;48
9019;Gödöllő, Palotakert H;47.598734;19.355678;;;;2;120
9020;Gödöllő, Palotakert H;47.598679;19.356116;;;;2;-47
9021;Gödöllő H;47.590597;19.358893;;;;2;
9022;Mogyoród H;47.595557;19.271513;;;;2;-51
9025;Zichy Jenő utca;47.505192;19.057853;;;;1;-47
9026;Zichy Jenő utca;47.505246;19.057588;;;;1;136
9031;Margit híd, budai hídfő H;47.514834;19.035830;;;;1;-162
9039;Csanády utca (Lehel tér M);47.515850;19.058891;;;;1;116
9041;Haller utca / Soroksári út;47.475726;19.069363;;;;1;-20
9042;Haller utca / Soroksári út;47.475447;19.069562;;;;1;149
9047;Homoktövis utca;47.594692;19.113273;;;;1;15
9065;Solymár, Szarvas;47.596321;18.973591;;;;2;-87
9066;Solymár, Szarvas;47.596178;18.974455;;;;2;93
9067;Solymár, Auchan áruház;47.597798;18.963376;;;;2;
9072;AsiaCenter;47.548412;19.146959;;;;1;-86
9074;Használtcikk piac;47.435510;19.145159;;;;1;-37
9085;Budaörs vasútállomás;47.448190;18.964863;;;;2;-94
9094;Petőfi Sándor utca;47.402451;18.937042;;;;1;-44
9095;Pacsirta utca;47.404562;18.933977;;;;1;-44
9096;Pacsirta utca;47.404616;18.933765;;;;2;136
9097;Nóra utca;47.407239;18.930884;;;;2;-22
9098;Nóra utca;47.407275;18.930738;;;;2;158
9099;Katinka utca;47.410428;18.926876;;;;2;-43
9100;Katinka utca;47.410123;18.927181;;;;2;137
9101;Tátika utca;47.412860;18.930262;;;;2;52
9102;Tátika utca;47.412824;18.929984;;;;2;-128
9103;Valéria utca;47.414113;18.932830;;;;2;56
9104;Valéria utca;47.414086;18.932618;;;;2;-123
9105;Diósd, Búzavirág utca;47.416567;18.934213;;;;2;
9119;Szentendre H;47.659618;19.074522;;;;1;-147
9137;Újmajori utca;47.471697;19.220067;;;;1;-155
9138;Csillagmotor köz;47.471018;19.221893;;;;2;-64
9139;Dedics Ferenc utca;47.469097;19.226094;;;;1;124
9140;Ősrepülő utca;47.469552;19.227168;;;;2;-149
9145;Haller utca / Mester utca;47.475966;19.077802;;;;2;-28
9146;Vágóhíd utca;47.473628;19.079643;;;;1;-33
9147;Vörösmarty utca;47.419869;19.120349;;;;1;49
9148;Szusza Ferenc Stadion;47.575797;19.083759;;;;2;38
9153;Óbudai rendelőintézet;47.545359;19.033751;;;;1;
9154;Atlétikai stadion;47.572575;19.114429;;;;2;15
9155;Atlétikai stadion;47.572180;19.114150;;;;2;-165
9160;Keleti pályaudvar M;47.499449;19.083401;;;;1;111
9161;Keleti pályaudvar M;47.499431;19.084012;;;;1;88
9162;Keleti pályaudvar M;47.499926;19.083216;;;;1;-118
9163;Keleti pályaudvar M;47.499926;19.083587;;;;1;-94
9166;Magdolna utca;47.492747;19.087656;;;;1;
9170;Pomáz, Dózsa György utca;47.645570;19.027226;;;;1;-30
9171;Pomáz, Dózsa György utca;47.645554;19.027001;;;;1;161
9174;Széll Kálmán tér M;47.507673;19.024894;;;;1;-80
9178;Bajza utca;47.514897;19.068025;;;;2;
9179;Petőfi híd, budai hídfő;47.476780;19.058883;;;;1;-125
9192;Kacsóh Pongrác utca;47.396467;19.208697;;;;2;171
9193;Kacsóh Pongrác utca;47.396853;19.208738;;;;1;-10
9194;Gyál, Ady Endre utca;47.389932;19.217935;;;;1;134
9195;Gyál, Ady Endre utca;47.390177;19.217708;;;;1;-46
9196;Széchenyi István utca;47.381846;19.230727;;;;1;-45
9197;Bocskai István utca;47.383397;19.228295;;;;1;-46
9198;Dobó Katica utca;47.386832;19.222956;;;;1;-47
9199;Mátyás király utca;47.394710;19.210533;;;;1;133
9200;Mátyás király utca;47.394883;19.210398;;;;1;-47
9201;Tulipán utca;47.392574;19.213824;;;;1;133
9202;Tulipán utca;47.392177;19.214604;;;;1;-46
9203;Gyál, Deák Ferenc utca;47.385265;19.235533;;;;1;136
9204;Árpád utca;47.388079;19.231106;;;;1;136
9205;Dobó Katica utca;47.389747;19.228502;;;;1;133
9206;Táncsics Mihály utca;47.392099;19.224843;;;;1;134
9207;Kossuth Lajos utca;47.391718;19.221172;;;;1;45
9208;Pestszentlőrinc, Szarvas csárda tér;47.441357;19.185110;;;;1;20
9220;Móricz Zsigmond körtér M;47.477499;19.048349;;;;1;
9225;Noszlopy utca;47.471959;19.148362;;;;2;-52
9234;Pestszentimre vasútállomás (Nemes utca);47.404518;19.187166;;;;1;48
9238;Szent Korona utca;47.525692;19.169817;;;;2;-34
9239;Csömöri út;47.528249;19.167313;;;;2;-33
9240;Sasvár utca;47.518294;19.180653;;;;2;143
9241;Margit utca;47.515079;19.185207;;;;2;60
9243;Alsó határút;47.416223;19.116187;;;;2;-153
9289;Gergely utca;47.468734;19.154524;;;;2;-52
9290;Közvágóhíd H;47.466702;19.076032;;;;2;-118
9292;Szigetszentmiklós, városháza;47.348602;19.044724;;;;1;-38
9295;Serfőző utca;47.539095;19.045373;;;;1;107
9301;Gárdonyi Géza utca;47.405402;18.947780;;;;1;-128
9309;Deák Ferenc tér M;47.497440;19.055729;;;;1;-54
9310;Müpa - Nemzeti Színház H;47.470275;19.074189;;;;1;-26
9311;BILK, bekötőút;47.378957;19.129179;;;;2;-128
9312;MNB;47.376882;19.124303;;;;2;-42
9314;BILK, DF épület;47.375229;19.120911;;;;2;47
9315;MNB;47.376675;19.124382;;;;2;138
9321;Keleti pályaudvar M;47.499926;19.084198;;;;1;-91
9322;Örs vezér tere M+H (Kerepesi út);47.503260;19.137956;;;;1;81
9337;Orbánhegyi dűlő;47.386327;19.110228;;;;2;-152
9338;Orbánhegyi dűlő;47.386390;19.110480;;;;2;28
9339;Szent István utca H;47.391083;19.114168;;;;2;-153
9349;Budaörsi repülőtér;47.447079;18.986730;;;;2;-88
9351;Kőérberek;47.446339;18.998545;;;;2;-83
9352;Kőérberek;47.446231;18.998784;;;;2;94
9353;Tippan utca;47.447968;19.000851;;;;2;-105
9354;Tippan utca;47.447788;19.000374;;;;2;75
9355;Régi vám (Kánai út);47.446377;19.003968;;;;2;-84
9356;Régi vám (Kánai út);47.446278;19.004075;;;;2;96
9358;Millenniumtelep H;47.379620;19.104287;;;;2;-147
9359;Boráros tér H;47.479684;19.066539;;;;2;102
9365;Zsil utca;47.482716;19.062997;;;;1;131
9369;Csepel, Horgásztanya;47.388344;19.103486;;;;1;-151
9372;Pestszentlőrinc, Béke tér;47.429102;19.218511;;;;2;
9373;Hunyadvár utca;47.508153;19.192136;;;;2;-20
9375;Szilas-patak;47.529297;19.185461;;;;1;58
9376;Újpalota, Nyírpalota út;47.547013;19.142015;;;;1;120
9377;Jókai Mór utca (Rendőrség);47.510358;19.190456;;;;1;157
9379;József utca;47.532080;19.155893;;;;1;-136
9381;Rózsa utca;47.515819;19.155754;;;;1;57
9382;Jávorfa utca;47.526052;19.177918;;;;2;-124
9383;János utca;47.523533;19.172315;;;;2;-124
9412;Karolina út;47.473505;19.034394;;;;1;106
9413;Ezredes utca;47.510057;19.021771;;;;2;-37
9415;Sárfű utca;47.550060;19.138067;;;;2;-50
9420;Honvédkórház;47.531561;19.070886;;;;1;-135
9421;Ezred utca;47.606004;19.097598;;;;2;32
9422;Ezred utca;47.606849;19.098223;;;;2;-147
9425;Csonka János tér;47.470484;19.045299;;;;1;13
9426;Zugló vasútállomás;47.511873;19.099618;;;;1;42
9427;Kelenföldi autóbuszgarázs;47.473243;19.029590;;;;2;-105
9429;Keserűvíztelep (Bobpálya);47.454806;19.007542;;;;2;-172
9430;Keserűvíztelep (Bobpálya);47.453880;19.007516;;;;2;9
9431;Régi vám;47.446818;19.006063;;;;2;8
9438;Budakeszi, Honfoglalás sétány;47.517762;18.923668;;;;1;
9439;Zichy Péter utca;47.515575;18.922359;;;;1;23
9440;Zichy Péter utca;47.516133;18.922570;;;;2;-158
9442;Széchenyi utca (gimnázium);47.512067;18.928677;;;;2;-75
9443;Széchenyi utca (gimnázium);47.512028;18.927518;;;;2;103
9445;Tatárka utca;47.434041;19.021173;;;;2;-13
9446;Botond utca;47.403953;18.995789;;;;2;-122
9447;Mátyás király utca;47.404446;18.991589;;;;2;10
9448;Görgey utca;47.406802;18.991613;;;;2;-18
9449;Török utca;47.411614;18.989898;;;;2;-23
9451;Gyűszű utca;47.417266;19.022400;;;;2;-131
9452;Húr utca;47.416159;19.020426;;;;2;-124
9453;Dévény utca;47.415224;19.022189;;;;2;43
9454;Wesselényi utca;47.415917;19.026059;;;;2;107
9455;Ostor utca;47.416544;19.029864;;;;1;20
9456;Római utca;47.417930;19.017589;;;;2;-38
9457;Római utca;47.417175;19.018319;;;;2;138
9458;Hűség utca;47.421208;19.013469;;;;1;-36
9459;Hűség utca;47.420529;19.014023;;;;2;147
9460;Komáromi út;47.424593;19.010866;;;;2;-25
9461;Komáromi út;47.423955;19.011131;;;;2;154
9462;Tanító utca;47.435306;19.008724;;;;2;-59
9463;Tanító utca;47.435297;19.009784;;;;2;23
9465;Plébánia utca;47.429726;19.032323;;;;2;-14
9466;Plébánia utca;47.429690;19.032217;;;;2;166
9467;Galamb utca;47.432765;19.028517;;;;2;-50
9468;Galamb utca;47.432711;19.028438;;;;2;130
9469;Alkotmány utca;47.433430;19.025932;;;;2;-59
9470;Alkotmány utca;47.433385;19.025919;;;;2;121
9471;Széchenyi utca;47.418185;19.032578;;;;2;24
9472;Promontor utca;47.418055;19.027015;;;;1;-105
9473;Széchenyi utca;47.418464;19.032657;;;;2;-151
9474;Komló utca;47.421339;19.035137;;;;2;-150
9475;Méhész utca;47.438572;19.034695;;;;2;155
9478;Szent Lőrinc-telep;47.432106;19.172930;;;;2;
9479;Szent Lőrinc-telep;47.432106;19.173155;;;;2;
9480;Margó Tivadar utca;47.433265;19.177803;;;;1;51
9481;Kerékgyártó utca;47.521341;19.105562;;;;1;-67
9482;Kucorgó tér;47.469059;19.295984;;;;2;-89
9483;Rákoscsaba vasútállomás;47.491097;19.281623;;;;1;-123
9484;Tura utca;47.489200;19.276864;;;;1;-117
9485;Rákoscsaba-Újtelep vasútállomás;47.488137;19.273290;;;;1;-110
9486;II. utca;47.486369;19.265893;;;;2;-102
9487;Rákosliget vasútállomás;47.486311;19.259071;;;;1;-81
9491;Füstifecske utca;47.478911;19.236966;;;;1;-75
9492;Füstifecske utca;47.478776;19.237124;;;;1;105
9493;Uszoda;47.479619;19.232961;;;;1;-74
9494;Újlak utca, lakótelep;47.482307;19.233674;;;;1;19
9495;Rákospatak utca;47.531435;19.100660;;;;1;-155
9498;Csertő utca;47.511107;19.146099;;;;2;-136
9499;Csertő utca;47.511591;19.147375;;;;2;45
9500;Körvasút sor;47.513666;19.151030;;;;2;55
9501;Körvasút sor;47.514609;19.152837;;;;2;-126
9503;Kovácsi Kálmán tér;47.573171;19.121120;;;;2;31
9504;Kovácsi Kálmán tér;47.573431;19.121200;;;;2;-150
9506;Örs vezér tere;47.503624;19.137185;9506;;CSLM2OVE;2;
9508;Orló utca;47.518254;19.007497;;;;1;-128
9509;Orló utca;47.518119;19.007404;;;;1;55
9510;Pasaréti út;47.516184;19.004033;;;;1;47
9511;Pasaréti út;47.516355;19.003967;;;;1;-133
9512;Endrődi Sándor utca;47.521143;19.011996;;;;1;-130
9513;Bimbó út;47.519325;19.008996;;;;1;-112
9514;Bimbó út;47.519964;19.010576;;;;1;43
9515;Rákospalota-Újpest vasútállomás;47.566389;19.111644;;;;1;-165
9516;Rákospalota-Újpest vasútállomás;47.566191;19.111737;;;;1;15
9520;Csörsz utca;47.490170;19.023466;;;;2;-83
9521;Csörsz utca;47.490044;19.023665;;;;2;97
9522;Sirály utca;47.490555;19.018489;;;;2;-83
9524;Albertfalva vasútállomás;47.441881;19.032202;;;;2;-36
9534;XIII. utca / Dózsa György út;47.411121;18.993728;;;;2;138
9536;Káposztásmegyer, Mogyoródi-patak;47.598690;19.121323;;;;2;87
9537;Március 15. tér;47.491531;19.051322;;;;1;28
9538;Irány utca;47.540469;19.109767;;;;1;-48
9539;Boglár utca;47.594701;19.060994;;;;1;96
9540;Szilágyi Erzsébet fasor;47.515203;19.002149;;;;1;-132
9541;Ady Endre út;47.436278;19.035478;;;;2;-73
9543;513. utca;47.484291;19.230112;;;;1;88
9544;Robogó utca;47.487235;19.270088;;;;1;-114
9545;Csepel;47.421156;19.065770;9545;;CSF04272;2;-149
9546;Memento Park;47.425665;19.001313;;;;1;143
9548;Tatárka utca;47.433933;19.021080;;;;2;170
9549;Madárdomb köz;47.478138;19.241221;;;;2;-74
9550;Madárdomb köz;47.478014;19.241141;;;;2;106
9551;Margó Tivadar utca;47.433123;19.176437;;;;1;-109
9554;Óbuda, Bogdáni út;47.550028;19.041176;;;;1;-82
9555;Szilágyi utca;47.570571;19.112699;;;;1;-70
9557;Vécsey Károly utca;47.571892;19.096021;;;;1;33
9558;Szent János Kórház;47.509962;19.009919;;;;1;-92
9563;Mészkő utca;47.579237;19.034843;;;;2;64
9564;Mészkő utca;47.579129;19.034311;;;;2;-124
9566;Soroksár, Auchan áruház;47.417204;19.158231;;;;1;50
9568;Sósmocsár út;47.414781;19.134154;;;;2;-41
9569;Thököly út;47.441995;19.180980;;;;1;121
9570;Újbuda-központ M;47.474163;19.047050;;;;1;-82
9572;Bagaria utca;47.590242;19.083130;;;;2;-140
9573;Bagaria utca;47.590307;19.083674;;;;1;46
9574;Ungvári utca;47.587511;19.082244;;;;2;3
9575;Ungvári utca;47.587265;19.082038;;;;2;-177
9576;Rév utca;47.584810;19.081824;;;;2;-177
9577;Savoya Park;47.436585;19.039680;;;;1;
9578;Savoya Park;47.436656;19.039269;;;;1;
9581;Gábor Áron utca;47.514978;19.002123;;;;1;47
9582;János tér;47.442019;19.102563;;;;2;-40
9584;Békásmegyer H;47.597444;19.055543;;;;1;23
9585;Nagytétény, Erdélyi utca;47.388125;18.970427;;;;2;-78
9586;Baross utca;47.436417;19.098832;;;;2;145
9587;Gogol utca;47.520447;19.056980;;;;1;109
9588;Kuruclesi út;47.518001;18.985232;;;;1;-72
9592;Kőbánya-Kispest P+R;47.464210;19.145941;;;;1;-67
9624;Maglód, Auchan áruház;47.460690;19.335221;;;;2;
9625;Szigetcsép utca;47.464407;19.312714;;;;1;-90
9630;Budakalász, Auchan áruház;47.611518;19.062395;9630;;CS009630;2;-162
9631;Gergely utca 80.;47.474086;19.144346;;;;2;-49
9632;Nagykőrösi út / Határ út;47.456381;19.114232;;;;2;102
9633;Budakalász, Auchan áruház;47.611513;19.062334;9633;;CS009630;2;-152
9634;Cinkotai autóbuszgarázs (kapu);47.498634;19.237646;;;;;
9636;Kelenföldi autóbuszgarázs (kapu);47.473264;19.029397;;;;;
9637;Óbudai autóbuszgarázs (Pomázi kapu);47.568220;19.027770;;;;;
9638;Kőbányai garázs (Salgótarjáni kapu);47.491008;19.114239;9638;;CS074021;;
9645;Zugló kocsiszín (kapu);47.518909;19.112583;;;;;
9652;Széchenyi út;47.545721;19.112403;;;;1;-137
9659;Mélyfúró utca;47.577590;19.129699;;;;2;129
9667;Újbuda-központ M;47.474064;19.048204;;;;1;
9675;Clark Ádám tér;47.497665;19.041541;;;;1;-18
9676;Clark Ádám tér;47.497359;19.041594;;;;1;160
9684;Városközpont, Posta;47.478941;19.256176;;;;1;-158
9685;Akácvirág utca;47.477351;19.255241;;;;1;-162
9691;Flórián tér;47.539901;19.042054;;;;1;122
9692;Szentlélek tér H;47.539892;19.046769;;;;2;-21
9693;Kolosy tér;47.527678;19.036823;;;;2;-84
9698;Galántai utca;47.498370;19.015183;;;;1;-77
9699;Galántai utca;47.498245;19.015329;;;;1;104
9702;Magdolna utca;47.492954;19.087179;;;;1;
9703;Közvágóhíd H;47.467702;19.076549;9703;;CS009703;1;-28
9704;Jászivány utca;47.495409;19.275378;;;;1;-49
9705;Diadal utca (Tura utca);47.494390;19.272268;;;;1;-120
9706;XVII. utca;47.491598;19.259995;;;;1;-170
9707;Aranykút utca;47.493794;19.278001;;;;2;129
9708;Rákoscsaba vasútállomás;47.491547;19.281877;;;;1;135
9709;Újbuda-központ M;47.474413;19.045456;;;;1;
9715;Zodony utca;47.430372;19.099913;;;;2;139
9716;Pesterzsébet vasútállomás;47.433495;19.095940;;;;2;-95
9717;Zamárdi utca;47.434221;19.093288;;;;2;-107
9718;Vízisport utca;47.434524;19.091361;;;;2;9
9719;Csepeli átjáró;47.436365;19.093238;;;;2;79
9728;Zsigmond utca;47.464014;19.318341;;;;2;75
9729;Zsigmond utca;47.464016;19.317704;;;;2;-105
9730;Széll Kálmán tér M;47.506881;19.023541;;;;1;-28
9743;Sirály utca;47.490376;19.019617;;;;2;96
9747;Ezred utca, lakótelep;47.609052;19.101471;;;;2;-57
9748;Európa Center;47.605210;19.103768;;;;2;32
9753;Blaha Lujza tér M (Népszínház utca);47.495999;19.071283;;;;2;-71
9763;Zsófialiget H;47.548044;19.263894;;;;2;47
9764;Zsófialiget H;47.547898;19.263369;;;;2;-133
9774;Jászberényi út / Maglódi út;47.489886;19.148828;;;;1;
11313;Szent László utca;47.405823;18.999264;;;;1;146
11316;Atlétikai stadion;47.572468;19.113937;;;;2;
11319;Móricz Zsigmond körtér M;47.477527;19.048628;;;;1;-65
11320;Búza utca;47.553437;19.040325;;;;1;13
11321;Búza utca;47.551890;19.039647;;;;1;-170
11322;Óbuda, Bogdáni út;47.549830;19.041189;;;;1;98
11327;Budaörsi Ipari és Technológiai Park;47.463310;18.894407;;;;2;-7
11495;Kék Golyó utca;47.497895;19.019895;;;;1;-100
11715;509. utca;47.484963;19.225442;;;;2;-78
11722;Rákoskeresztúr, városközpont;47.479663;19.254959;;;;1;
11723;Rákoskeresztúr, városközpont;47.479536;19.255542;;;;1;103
11724;Rákoskeresztúr, városközpont;47.479373;19.256098;;;;1;130
11725;Rákoskeresztúr, városközpont;47.479815;19.255331;;;;1;-134
11726;Rákoskeresztúr, városközpont;47.479942;19.254761;;;;1;-110
11732;Deák Ferenc tér M;47.499203;19.053804;;;;1;-97
11762;Újpest-városkapu M;47.559059;19.078791;;;;1;4
11765;Boráros tér H;47.479270;19.067786;;;;2;-7
11768;Rákoscsaba-Újtelep, Tóalmás utca;47.499281;19.286785;;;;2;19
11773;Keresztúri út;47.484645;19.227750;;;;2;-78
16725;Rózsaliget;47.466582;19.158453;;;;2;-51
16727;Újbuda-központ M;47.474649;19.046771;;;;1;14
16729;Naphegy tér;47.493490;19.032783;;;;1;-72
16764;Kalotaszeg utca;47.458825;19.041134;;;;2;13
19313;Rákoskert vasútállomás;47.457296;19.295147;;;;1;71
19314;Schell Gyuláné tér;47.459787;19.299349;;;;2;160
19316;Rákoscsaba vasútállomás;47.491014;19.282870;;;;1;4
22005;Tölgy utca;47.416370;19.205427;;;;1;-133
22006;Szenes Iván tér;47.479990;19.095703;;;;2;119
30328;Soroksár, Hősök tere H;47.399367;19.115423;;;;1;
31884;Nagykovácsi, Tisza István tér;47.575789;18.879511;;;;1;
36236;Szigetszentmiklós H;47.345454;19.048205;;;;1;35
36678;Széll Kálmán tér M;47.506710;19.025240;;;;1;38
37379;Batthyány tér M+H;47.506209;19.038447;;;;1;1
37747;Lakihegy, Cseresznyés utca;47.377332;19.007248;;;;1;38
37748;Lakihegy, Cseresznyés utca;47.376792;19.006348;;;;1;-132
38670;Kőbánya-Kispest M;47.462337;19.148590;;;;1;109
38671;Kőbánya-Kispest M;47.462344;19.148344;;;;1;-168
38673;Kőbánya-Kispest M;47.462694;19.149021;;;;1;72
38674;Kőbánya-Kispest M;47.462974;19.147562;;;;1;110
38675;Kőbánya-Kispest M;47.463191;19.146979;;;;1;-94
38678;Kőbánya-Kispest M;47.463037;19.147748;;;;1;-78
38680;Kőbánya-Kispest M;47.462929;19.148252;;;;1;-75
38681;Kőbánya-Kispest M;47.462796;19.148790;;;;1;-106
38682;Kőbánya-Kispest M;47.462912;19.149201;;;;1;94
38683;Kőbánya-Kispest M;47.462976;19.148644;;;;1;17
38686;Kőbánya-Kispest M;47.463460;19.147245;;;;1;-89
38687;Kőbánya-Kispest M;47.463307;19.147921;;;;1;-75
38688;Kőbánya-Kispest M;47.463226;19.148266;;;;1;-65
38692;Kőbánya-Kispest M;47.462517;19.148683;;;;1;
38717;Deák Ferenc tér M;47.499032;19.054030;;;;1;59
38791;Kőbánya alsó vasútállomás;47.483103;19.128249;;;;2;124
40525;Hentes utca;47.462276;19.084570;;;;1;149
40526;Hentes utca;47.462600;19.084411;;;;1;-30
40591;FESTO;47.564606;19.030822;;;;1;
40608;Zsivora park;47.509134;19.148798;;;;1;-32
40609;Szent Imre tér H;47.431780;19.067901;;;;1;3
40612;Bányató utca;47.466331;19.165078;;;;2;55
40762;Határ út M;47.465339;19.127838;;;;2;-62
40763;Határ út M;47.465069;19.128275;;;;2;113
40789;Kerékgyártó utca;47.520990;19.106438;;;;1;115
41071;Nagyvárad tér M;47.479202;19.088416;;;;2;
41092;Csepeli Kórház;47.424622;19.058674;;;;2;-48
41093;Duna utca;47.428215;19.059125;;;;2;35
41094;Színesfém utca;47.430535;19.064600;;;;2;94
41095;Szent Imre tér H;47.432046;19.067318;;;;2;93
41139;Mázsa utca;47.483115;19.122863;;;;1;
41140;Mázsa utca;47.482980;19.122823;;;;1;
41207;Rákospalota, Kossuth utca;47.567910;19.125706;;;;1;87
41209;Boráros tér H;47.479333;19.066923;;;;2;93
42797;Bányató utca;47.465434;19.162927;;;;2;-126
42934;Soroksár, BILK;47.378287;19.121299;;;;2;-64
43154;Dél-pesti autóbuszgarázs (kapu);47.426902;19.160697;;;;;
43176;Kőbánya-Kispest M;47.461923;19.149332;;;;2;-146
43192;Kisvárda utca;47.471587;19.282412;;;;1;-81
43193;Kisvárda utca;47.471324;19.283632;;;;1;92
43331;Szentlőrinci úti lakótelep;47.417185;19.130752;;;;2;42
43333;Szent Orbán tér;47.498503;19.008136;;;;2;-178
43341;György utca;47.530940;19.171561;;;;1;-35
43342;Régi Fóti út;47.559188;19.122464;;;;1;-48
43343;Csörsz utca;47.490620;19.024650;;;;1;-8
43481;Káposztásmegyer, Aquaworld;47.599639;19.112654;;;;1;-140
43548;Csaba vezér tér;47.487256;19.286582;;;;2;-35
43554;Enying utca;47.475377;19.297911;;;;2;-40
43555;Sport tér;47.477046;19.295809;;;;2;-41
43556;Rés utca;47.480202;19.291870;;;;2;-42
43571;Dukát utca;47.408304;18.991015;;;;2;-5
43746;Kőbányai garázs (Pongrácz kapu);47.492390;19.119545;;;;;
43955;Óbudai autóbuszgarázs (Törökkő kapu);47.566890;19.031889;;;;;
44029;Fenyőgyöngye;47.540451;19.006603;;;;2;38
44032;Szigetszentmiklós, városháza;47.348053;19.044870;;;;1;155
44033;József Attila utca;47.338022;19.039575;;;;1;89
44034;József Attila utca;47.338114;19.038215;;;;2;-49
44076;Déli utca;47.423173;19.061198;;;;1;-46
44115;Pöttyös utca M;47.468484;19.116055;;;;2;-170
44125;Cinkota H;47.520032;19.220580;;;;2;-61
44126;Száva kocsiszín;47.466764;19.123039;;;;1;-62
44127;Száva kocsiszín;47.466420;19.123095;;;;2;118
44128;Valéria tér;47.465707;19.115411;;;;1;-162
44129;Napfény utca;47.458582;19.114450;;;;2;-166
44130;Madzsar József utca / Pünkösdfürdő utca;47.595572;19.054226;;;;2;26
44131;Madzsar József utca / Pünkösdfürdő utca;47.595527;19.054026;;;;2;-154
44135;Íves út;47.593086;19.107022;;;;1;-29
44178;Szent Gellért-templom;47.469358;19.025906;;;;2;57
44180;Nyugati pályaudvar M;47.511337;19.056712;;;;2;
44192;Békásmegyer H;47.597856;19.053867;;;;2;-152
44214;Cinkota;47.520017;19.218588;44214;;CS044214;2;
44216;Mogyoród;47.595962;19.271682;44216;;CSF04668;2;17
44301;Orczy tér (Baross kocsiszín);47.489477;19.090708;;;;2;95
44369;Ráckeve;47.175605;18.941796;;;;2;
44371;Budakeszi, Tesco áruház;47.500234;18.916821;;;;2;41
44372;Solymár, Kerekhegy;47.581449;18.926420;;;;2;-122
44375;Budaliget, Géza fejedelem útja;47.567607;18.936286;;;;2;65
44380;Dózsa György tér;47.507193;18.922432;;;;2;-112
44381;Dózsa György tér;47.507040;18.922366;;;;2;68
44382;Budakeszi, Tiefenweg utca;47.503935;18.921006;;;;1;178
44383;Budakeszi, Tiefenweg utca;47.503557;18.921167;;;;1;8
44388;Soroksár, Auchan áruház;47.419788;19.155599;;;;1;-15
44511;Solymár, PEMÜ;47.597409;18.928240;;;;2;30
44554;Deák Ferenc tér M;47.496405;19.057068;;;;1;121
44557;Újpest, Árpád út hajóállomás;47.562796;19.078314;;;;1;-169
44601;Solymár, Auchan áruház;47.598851;18.962065;;;;1;-157
44602;Solymár, temető;47.594948;18.940930;;;;1;67
44603;Solymár, temető;47.595001;18.940212;;;;1;-105
44637;Görögkatolikus templom;47.423117;19.078036;;;;1;6
44638;Görögkatolikus templom;47.424034;19.077997;;;;1;-176
45755;Maros utca;47.418292;19.138131;;;;1;49
45883;Fót, Auchan áruház;47.580948;19.161548;;;;1;43
47670;Budakeszi temető;47.514029;18.923053;;;;2;-79
47875;Orczy tér (Baross kocsiszín);47.489544;19.090388;;;;2;-74
47985;Szőlőskert utca;47.502140;18.916538;;;;2;-149
48277;Kőbánya alsó vasútállomás;47.483123;19.127809;;;;2;-16
48302;Diósdi út;47.433749;18.925165;;;;2;118
48303;Diósdi út;47.433937;18.924939;;;;2;-59
48304;Liliom utca;47.431485;18.927729;;;;2;151
48305;Liliom utca;47.430955;18.928340;;;;2;-33
48471;Pasaréti tér;47.523609;18.994082;;;;1;112
48505;Szent István Bazilika;47.500687;19.054694;;;;1;-179
48506;Szent István Bazilika;47.500273;19.055025;;;;1;0
48519;Rákospalota, Kossuth utca;47.568485;19.125534;;;;1;114
48536;Lehel tér M;47.517759;19.060445;;;;2;
48621;Széna tér tároló;47.508681;19.027708;;;;1;
49170;Szent István utca H;47.391218;19.114446;;;;2;27
49171;Zsellér dűlő;47.391331;19.118615;;;;1;-28
49172;Gyáli-patak;47.394752;19.116782;;;;2;39
49174;Soroksár, Kertvárosi körút;47.413026;19.136152;;;;2;140
49180;Dagály fürdő;47.539100;19.061698;;;;1;-161
49182;Úszódaru utca;47.546042;19.069019;;;;2;17
49183;Úszódaru utca;47.545898;19.068806;;;;2;-163
49185;Szántóföld utca;47.572636;19.139461;;;;2;37
49186;Kalotaszeg utca;47.459214;19.040857;;;;1;-165
49597;BudaPart;47.468442;19.057157;;;;1;103
49784;Clark Ádám tér;47.498879;19.040174;;;;1;166
49785;Clark Ádám tér;47.499328;19.040161;;;;1;-14
49787;Nagytétény, Erdélyi utca;47.387982;18.970812;;;;2;44
49903;Mansfeld Péter park;47.517075;19.033226;;;;2;3
49914;Sörgyár;47.491859;19.144405;;;;2;
50003;Cinkota H;47.520006;19.220341;;;;2;119
50129;Csapó utca;47.440861;19.161363;;;;2;
50173;Lincoln út;47.416015;19.243500;;;;2;-136
50174;Lőrinci utca;47.416612;19.241461;;;;2;-47
50175;Pestszentlőrinc, sorompó;47.421906;19.238604;;;;2;117
50176;Pestszentlőrinc, sorompó;47.422104;19.238366;;;;2;-63
50177;Ganztelep, Mednyánszky utca;47.423198;19.234845;;;;2;123
50178;Pestszentlőrinc, Béke tér;47.429490;19.218430;50178;;CSF03788;2;27
50180;Duna utca;47.433016;19.220602;50180;;CSF03785;2;20
50182;Duna utca;47.433475;19.220630;50182;;CS050182;2;-157
50183;Pestszentlőrinc, Béke tér;47.429673;19.218245;50183;;CS050183;2;-153
50184;Lőrinci piac;47.443130;19.184332;;;;2;33
50185;Vecsés, Market Central Ferihegy;47.416726;19.251851;;;;1;-54
50187;Vecsés, Fő út;47.418379;19.249419;;;;2;114
50279;Lomnici utca;47.436482;19.019517;;;;1;90
56123;Borsmenta utca;47.572507;19.010551;;;;1;-135
56124;Citronella utca;47.571696;19.006817;;;;1;-67
56161;Csillaghegy H [1];47.584475;19.044175;;;;2;
56162;Mészkő utca [2];47.579492;19.034353;;;;2;-49
56163;Mészkő utca [2];47.579402;19.034313;;;;2;131
56165;Öregbükk utca [3];47.581020;19.030165;;;;2;-51
56166;Öregbükk utca [3];47.580966;19.030085;;;;2;129
56168;Cserszömörce utca [4];47.582575;19.026017;;;;2;-64
56169;Cserszömörce utca [4];47.582485;19.025937;;;;2;121
56173;Mácsonya utca [5];47.583753;19.023743;;;;2;-59
56175;Saroglya utca [6];47.584391;19.022254;;;;2;-51
56178;Csillaghegy H [1];47.584637;19.043138;;;;2;
56187;Muzsla utca [11];47.580911;19.024130;;;;2;29
56188;Óarany utca [10];47.579220;19.023466;;;;2;26
56189;Ipacsfa utca;47.429484;19.168656;;;;2;129
56215;Kelenföld vasútállomás;47.464515;19.019618;56215;;CSLM4KFD;1;-86
56216;Kelenföld vasútállomás;47.464255;19.020587;56216;;CSLM4KFD;1;110
56217;Bikás park;47.464881;19.032345;56217;;CSLM4BP1;1;-111
56218;Bikás park;47.465022;19.033386;56218;;CSLM4BP1;1;70
56219;Újbuda-központ;47.472860;19.045954;56219;;CSLM4UK1;1;-167
56220;Újbuda-központ;47.473559;19.046266;56220;;CSLM4UK1;1;14
56221;Móricz Zsigmond körtér;47.476629;19.047227;56221;;CSLM4MKF;1;-167
56222;Móricz Zsigmond körtér;47.477310;19.047645;56222;;CSLM4MKF;1;14
56223;Szent Gellért tér - Műegyetem;47.482635;19.054014;56223;;CSLM4SG1;1;-130
56224;Szent Gellért tér - Műegyetem;47.483039;19.055036;56224;;CSLM4SG1;1;50
56225;Fővám tér;47.485792;19.057571;56225;;CSLM4FT1;1;-156
56226;Fővám tér;47.486169;19.058009;56226;;CSLM4FT1;1;26
56227;Kálvin tér;47.488903;19.061022;56227;;CSLM4KVA;1;-128
56228;Kálvin tér;47.489245;19.061938;56228;;CSLM4KVA;1;53
56229;Rákóczi tér;47.492725;19.071361;56229;;CS056230;1;-101
56230;Rákóczi tér;47.492760;19.072489;56230;;CS056230;1;78
56231;II. János Pál pápa tér;47.495593;19.077229;56231;;CS056232;1;-158
56232;II. János Pál pápa tér;47.496078;19.077707;56232;;CS056232;1;24
56233;Keleti pályaudvar;47.500116;19.080722;56233;;CSLMXKPB;1;-128
56234;Keleti pályaudvar;47.500485;19.081704;56234;;CSLMXKPB;1;51
56426;Károly körút (Astoria M);47.495524;19.060201;56426;;CSF01108;2;
61136;Rákosszeg park;47.534267;19.103451;;;;2;26
61188;Kelenföld vasútállomás M;47.464005;19.018706;;;;1;160
61222;Kelenföld vasútállomás M;47.464364;19.018786;;;;1;-176
61223;Neszmélyi út;47.460801;19.013867;;;;1;-56
61224;Péterhegyi út / Neszmélyi út;47.458590;19.018802;;;;1;-59
61225;Hajtány sor;47.455342;19.024398;;;;2;17
61226;Péterhegyi út (Menyecske utca);47.461432;19.018933;;;;2;-4
61227;Péterhegyi út (Menyecske utca);47.461046;19.018907;;;;2;170
61231;Pajkos utca;47.456866;19.030526;;;;1;99
61232;Pajkos utca;47.457144;19.029107;;;;1;-79
61233;Antalháza;47.436488;19.007202;;;;1;19
61234;Antalháza;47.436388;19.006937;;;;1;-162
61236;Bíbic utca;47.412085;19.005088;;;;1;-43
61237;Bíbic utca;47.411959;19.005128;;;;1;137
61238;Nyéki Imre Uszoda;47.450954;19.036666;;;;2;97
61271;Igmándi utca;47.457248;19.019994;;;;2;179
61272;Bolygó utca;47.451139;19.016244;;;;2;-163
61273;Bolygó utca;47.450752;19.016218;;;;2;20
61274;Kelenföld vasútállomás M;47.464094;19.018481;;;;1;178
61275;Kelenföld vasútállomás M;47.464337;19.018507;;;;1;112
61277;Kelenföld vasútállomás M;47.464634;19.018494;;;;1;125
61278;Kelenföld vasútállomás M;47.464751;19.017791;;;;1;-58
61280;Kelenföld vasútállomás M;47.464436;19.018308;;;;1;8
61286;Szabina út;47.437241;19.013747;;;;2;5
61349;Keleti pályaudvar M;47.499647;19.083521;;;;1;
61350;Keleti pályaudvar M;47.499809;19.083229;;;;1;-92
61351;Keleti pályaudvar M;47.499809;19.083839;;;;1;-92
61352;Keleti pályaudvar M;47.499809;19.084145;;;;1;
61367;Puskás Ferenc Stadion M;47.499880;19.107530;;;;1;
61368;Munkás utca;47.499918;19.079088;;;;1;147
61378;Szőlőskert utca;47.502266;18.916790;;;;2;31
61379;Maglód, Auchan áruház;47.459205;19.332057;;;;2;-51
62511;Than Károly utca;47.460867;19.025127;;;;1;-155
62512;Borszéki utca;47.458420;19.023497;;;;1;-156
62513;Jégmadár utca;47.430794;19.005802;;;;1;-37
62514;Jégmadár utca;47.430722;19.005656;;;;1;143
62515;Török utca;47.412771;18.989465;;;;2;-125
62516;Török utca;47.412851;18.988856;;;;2;147
62517;Rózsák tere;47.501817;19.075598;;;;1;49
62518;Március 15. tér;47.491881;19.051747;;;;1;-98
62519;Gazdagréti út;47.462741;19.005126;;;;1;158
62521;Corvin-negyed M;47.486357;19.068850;;;;1;-55
62522;XIII. utca / Dózsa György út;47.411130;18.993901;;;;2;-42
62566;Boráros tér H;47.479639;19.067016;;;;;
62604;Nyár utca;47.435693;18.918493;;;;1;-28
62607;Infopark (Pázmány Péter sétány);47.469872;19.062941;;;;1;-88
62608;Magyar tudósok körútja;47.471473;19.063671;;;;1;81
62620;Egyetemváros - A38 hajóállomás;47.473290;19.063539;;;;1;167
62621;Egyetemváros - A38 hajóállomás;47.473730;19.063592;;;;1;-13
62622;Magyar tudósok körútja;47.472183;19.063857;;;;1;168
62726;Régi vám;47.445631;19.005613;;;;2;-172
62756;Dagály fürdő;47.537697;19.062787;;;;1;107
62757;Karikás Frigyes utca;47.536815;19.067116;;;;1;108
62815;Szent László utca;47.405382;18.999105;;;;2;-123
62861;Dagály fürdő;47.537850;19.062428;;;;1;-73
62942;Péterfy Sándor utca;47.501636;19.077828;;;;1;-31
62944;Czetz János köz;47.578206;19.049333;;;;1;2
62946;Attila utca;47.581318;19.049413;;;;1;1
62948;Mátyás király út;47.586373;19.050011;;;;1;6
62950;Bercsényi utca;47.585689;19.051181;;;;1;-176
63399;Hulladékhasznosító Mű;47.584164;19.131198;;;;2;29
63526;Lehel tér M (kelet);47.516679;19.061201;;;;2;
64067;Massányi úti lakópark;47.359933;19.028746;;;;1;133
64074;Massányi úti lakópark;47.360751;19.027739;;;;1;-46
64075;Szigetszentmiklós, Szabadság utca;47.358296;19.031884;;;;1;-35
64085;Kölcsey Ferenc utca;47.355275;19.034823;;;;1;144
64087;Lehel utca;47.352883;19.038490;;;;2;130
64088;Városi Könyvtár;47.344797;19.042250;;;;1;-146
64089;Miklós Pláza;47.341631;19.040874;;;;2;169
64090;Nap utca (óvoda);47.349535;19.025706;;;;1;-142
64091;Váci Mihály utca (József Attila-telep H);47.338455;19.035846;;;;1;1
64092;Jókai utca;47.341252;19.035951;;;;1;2
64093;Akácfa körút;47.344229;19.033185;;;;1;-64
64103;Tamási Áron utca;47.345047;19.028076;;;;1;-96
64104;Miklós tér;47.346953;19.023219;;;;2;-46
64105;Szebeni utca;47.350638;19.016265;;;;2;-44
64106;Nap utca (óvoda);47.349733;19.026063;;;;1;38
64107;Ősz utca;47.352943;19.024778;;;;1;-41
64108;Ady Endre utca;47.355057;19.025849;;;;2;44
64170;Ady Endre utca;47.355831;19.027066;;;;2;-139
64175;Ősz utca;47.352386;19.025321;;;;1;138
64181;Miklós tér;47.347331;19.023126;;;;2;-142
64182;Tamási Áron utca;47.345002;19.028765;;;;2;85
64183;Akácfa körút;47.343852;19.034217;;;;2;111
64184;Jókai utca;47.341072;19.035806;;;;2;-178
64185;Váci Mihály utca (József Attila-telep H);47.338590;19.035687;;;;1;-179
64186;Kisfaludy utca;47.342349;19.045001;;;;2;34
64187;Lehel utca;47.352892;19.038688;;;;2;-50
64188;Kölcsey Ferenc utca;47.354951;19.035366;;;;2;-45
64208;Szépvölgyi köz;47.541088;19.001940;;;;2;-73
64209;Szépvölgyi köz;47.541088;19.001608;;;;2;108
64210;Fenyőgyöngye;47.540370;19.005647;;;;2;-71
64212;Selyemakác utca;47.543118;18.996373;;;;2;-56
64214;Selyemakác utca;47.543064;18.996307;;;;2;124
64215;Szépvölgyi dűlő;47.545841;18.992119;;;;2;-130
64239;Leshegy utca;47.376961;19.032246;;;;2;92
64240;Leshegy utca;47.377069;19.031955;;;;2;-88
64241;Leshegy Ipari Park;47.376062;19.042074;;;;2;139
64242;Leshegy Ipari Park;47.375594;19.041993;;;;2;47
64243;Temető utca;47.356175;19.046921;;;;1;22
64244;Wesselényi utca;47.351111;19.045280;;;;1;32
64245;Bánki Donát utca;47.360348;19.047569;;;;1;3
64246;Bányató út;47.367661;19.048324;;;;2;4
64316;Bányató út;47.366860;19.048032;;;;2;-175
64317;Bánki Donát utca;47.359457;19.047263;;;;2;-177
64318;Temető utca;47.355356;19.045862;;;;1;-139
64319;Wesselényi utca;47.352046;19.045385;;;;2;165
64377;Ürömhegyi út / Jutas utca [8];47.582618;19.015383;;;;2;-37
66435;Népliget M;47.476679;19.096177;;;;2;
66451;Infopark;47.469171;19.059717;;;;1;-85
66452;Infopark;47.469072;19.060500;;;;1;96
66453;Budafoki út / Dombóvári út;47.469808;19.053655;;;;1;-75
66454;Budafoki út / Dombóvári út;47.469646;19.054384;;;;1;104
66455;Hauszmann Alajos utca / Szerémi út;47.466536;19.049570;;;;1;-168
66456;Hauszmann Alajos utca / Szerémi út;47.467013;19.049756;;;;1;12
66457;Hengermalom út / Szerémi út;47.462066;19.048336;;;;1;-168
66458;Hengermalom út / Szerémi út;47.462551;19.048509;;;;1;11
66459;Etele út / Fehérvári út;47.462389;19.042594;;;;1;-79
66460;Etele út / Fehérvári út;47.462254;19.043363;;;;1;100
66477;Hunyadi János út tároló;47.431139;19.042741;;;;2;
66679;Pallós utca;47.487056;19.291849;;;;2;65
66680;Pallós utca;47.487039;19.291504;;;;2;-115
66681;Jókai Mór Általános Iskola;47.487985;19.294719;;;;2;64
66682;Jókai Mór Általános Iskola;47.487887;19.294135;;;;2;-116
66683;Csabamező utca / Göcsej utca;47.486349;19.298294;;;;2;46
66684;Csabamező utca / Göcsej utca;47.486224;19.297962;;;;2;-134
66685;Ecsedháza köz;47.487963;19.300796;;;;2;45
66686;Ecsedháza köz;47.488008;19.300770;;;;2;-135
66687;Ede utca;47.490027;19.303088;;;;2;-4
66688;Ede utca;47.490153;19.302970;;;;2;176
66697;Rés utca;47.480157;19.291817;;;;2;128
66698;Sport tér;47.476785;19.295994;;;;2;139
66699;Enying utca;47.475188;19.298029;;;;2;139
66700;Szárazhegy köz;47.473213;19.300607;;;;2;138
66711;Rákoscsaba-Újtelep vasútállomás;47.486549;19.271041;;;;2;-113
66712;Szabadság sugárút / Péceli út;47.482938;19.273347;;;;2;162
66713;Szabadság sugárút / Péceli út;47.482631;19.274063;;;;2;-38
66714;Nyitány utca;47.480756;19.275992;;;;2;142
66715;Nyitány utca;47.481053;19.275794;;;;2;-38
66716;Öntöző utca;47.478737;19.278238;;;;2;141
66717;Öntöző utca;47.478899;19.278173;;;;2;-39
66718;Pestvidék utca;47.476592;19.280644;;;;2;143
66719;Pestvidék utca;47.476781;19.280538;;;;2;-37
66720;Derkovits tér;47.474869;19.283024;;;;2;66
66722;Nyeremény utca;47.474462;19.284123;;;;2;-113
66828;Göncz Árpád városközpont M;47.532812;19.065866;;;;1;140
66856;Pagony utca;47.495101;19.002830;;;;1;108
66969;Zimonyi utca;47.471748;19.299950;;;;2;-129
67001;Borszéki utca MOL kút;47.456592;19.024172;;;;2;
67002;Kelenföldi VB pályaudvar;47.463329;19.022895;;;;;
67334;Hős u. MOL kút;47.496093;19.108578;;;;2;
67335;Pesti út MOL kút;47.484366;19.227629;;;;2;
67368;Nagykőrösi út MOL kút;47.442630;19.132926;;;;2;
67563;Csepel, Szent István út MOL kút;47.419083;19.074285;;;;2;
67592;Batthyány tér M+H;47.506515;19.038487;;;;1;-27
67622;Csepel, Csillagtelep;47.409970;19.060354;;;;1;27
69089;Margit híd, budai hídfő H;47.515149;19.037569;;;;1;-101
69090;Margit híd, budai hídfő H;47.515122;19.037158;;;;1;-11
69091;Margit híd, budai hídfő H;47.514717;19.035936;;;;1;-163
69092;Bem József tér;47.512082;19.039455;;;;1;4
69093;Bem József tér;47.511776;19.039296;;;;1;-175
69195;Leshegy Ipari Park;47.375244;19.043158;;;;2;-34
69403;Jahn Ferenc Kórház;47.423225;19.132016;;;;1;137
69428;Mátray utca;47.506092;19.028928;;;;1;124
70997;Széll Kálmán tér M;47.507743;19.023301;;;;1;
71135;Budaörs Metro MOL kút;47.460514;18.893215;;;;2;
71262;BudaPart;47.468505;19.058444;;;;1;-80
71659;Nyugati pályaudvar M;47.509726;19.054920;;;;1;-166
72046;Muflon utca;47.570868;18.931415;;;;2;-39
72047;Muflon utca;47.570670;18.931469;;;;2;141
72851;Maros utcai rendelőintézet;47.503868;19.022427;;;;2;-36
72912;Ág utca;47.495662;19.029480;72912;;CSF00097;1;
72924;Határ út M;47.464200;19.126491;;;;2;
72934;Rudas Gyógyfürdő;47.490110;19.047195;;;;1;-39
72935;Rudas Gyógyfürdő;47.489824;19.047383;;;;1;143
72938;CS/ Kossuth Lajos utca MOL;47.438084;19.071291;;;;2;
73037;Széll Kálmán tér M;47.505964;19.025200;;;;1;-72
73097;Széll Kálmán tér M;47.507489;19.023439;;;;1;
73099;Széll Kálmán tér M;47.507795;19.022886;;;;1;
73108;Budafoki út / Dombóvári út;47.468757;19.053324;;;;1;2
73137;Széll Kálmán tér M (Ostrom utca);47.507107;19.027124;;;;1;140
73152;Maros utca;47.505533;19.021637;;;;1;51
73308;Solymár vasútállomás;47.596035;18.949797;;;;1;-76
73426;Művelődési Ház;47.428626;18.913182;;;;1;24
73427;Művelődési Ház;47.428518;18.912970;;;;1;-155
73471;Nyár utca;47.435378;18.918467;;;;1;149
73472;Harangláb;47.432108;18.913915;;;;2;-51
73473;Munkácsy Mihály utca (hősi emlékmű);47.431390;18.916591;;;;2;-142
73505;Boráros tér H;47.479495;19.066751;;;;2;131
74021;Kőbányai garázs;47.491018;19.114222;74021;;CS074021;2;-128
74495;Törökbálint Sportközpont;47.440514;18.897223;;;;;34
74501;Krisztina tér;47.496699;19.031667;;;;1;
74637;Csáktornya park;47.536748;19.106256;;;;1;
74909;Auchan Liget;47.541449;19.246632;;;;1;-44
74959;Deák Ferenc tér M;47.498312;19.054866;;;;1;0
75119;Nyár utca;47.435414;18.918706;;;;1;-22
75220;Óbudai autóbuszgarázs;47.567996;19.027538;;;;1;128
75654;Köves út / Szentlőrinci út;47.416057;19.143215;;;;1;50
75655;Köves út / Szentlőrinci út;47.416265;19.143244;;;;1;-130
75744;Sasadi út;47.465452;19.015814;;;;1;45
76394;Aranyvölgy vasútállomás;47.574337;19.016474;;;;1;-61
76395;Aranyvölgy vasútállomás;47.573789;19.017660;;;;1;121
76396;Óbuda vasútállomás (Aranyhegyi út);47.570439;19.028424;;;;1;112
76397;Óbuda vasútállomás (Aranyhegyi út);47.570755;19.027745;;;;1;-68
76398;Aranyvölgy utca 14.;47.571859;19.022431;;;;1;110
76399;Aranyvölgy utca 14.;47.572096;19.021853;;;;1;-60
77969;Andor utcai autóbuszgarázs (kapu);47.457701;19.027184;;;;;
78064;Nyéki Imre Uszoda;47.451074;19.037384;;;;2;-82
81565;Széll Kálmán tér M;47.507691;19.024350;;;;1;-84
81950;Városház tér;47.426313;19.040040;;;;1;76
81954;Kacsa utca;47.510526;19.039256;;;;1;1
82200;Bécsi út / Vörösvári út;47.546762;19.029194;;;;1;-10
82333;Kőbánya-Kispest M;47.462755;19.149417;;;;2;
82617;Sasadi út;47.466648;19.016251;;;;1;-143
82623;Rózsakert utca / Minta utca;47.403236;19.009361;;;;1;-66
83329;Bartók Béla út 208.;47.417572;18.985339;;;;1;-29
83330;Bartók Béla út 208.;47.416996;18.985724;;;;1;145
83331;Savoyai Jenő tér (Plébánia utca);47.428786;19.035467;;;;1;-91
83601;Rudas Gyógyfürdő;47.490065;19.047301;;;;;
83777;Budafoki Szomszédok Piaca;47.427563;19.039417;;;;1;-103
83948;Árpád fejedelem útja, MOL-töltőállomás;47.536055;19.046334;;;;;
85723;Lehel tér M (Lehel utca);47.517100;19.062144;;;;;
86671;Budaörs M1-M7 MOL kút;47.451598;18.958601;;;;;
86856;Nagyvárad tér M;47.477735;19.091387;;;;1;31
86857;Albert Flórián út;47.473524;19.095031;;;;1;-37
86859;Népliget M;47.476544;19.100752;;;;2;-4
86874;Vörösmarty Mihály utca;47.439540;19.164256;;;;1;75
86875;Kondor Béla sétány;47.438745;19.167224;;;;1;122
86876;Fiatalság utca;47.437131;19.171052;;;;1;123
86880;Népliget M;47.476220;19.100592;;;;2;163
86885;Nagyvárad tér M;47.478347;19.090724;;;;1;123
87373;Soroksár, IKEA áruház;47.412767;19.160899;;;;1;11
87616;Mezőkövesd út MOL töltőállomás;47.439699;19.044018;;;;;
87617;Budaörsi út MOL töltőállomás;47.463919;19.011266;;;;;
88018;Gyáli út, MOL Töltőállomás;47.459785;19.109854;;;;;
88453;Ráckeve kocsiszín (kapu);47.174793;18.941817;;;;2;
88670;Repülőmúzeum;47.426502;19.262121;;;;1;172
88969;Kőbánya-Kispest M;47.462797;19.148349;;;;1;108
89725;Nád utca;47.593723;19.047254;;;;1;28
90370;Lehel tér M;47.518906;19.060960;;;;1;43
90482;Ötvenhatosok tere;47.507822;19.087004;;;;1;-139
90693;Hűvösvölgyi út MOL kút;47.537117;18.967521;;;;;
90783;Pilisvörösvár, MOL-töltőállomás;47.607595;18.942514;;;;;
90784;Solymár, PEVDI;47.596764;18.952940;;;;;
90915;Andor utca / Tétényi út;47.457018;19.033547;;;;1;-1
91120;Szikratávíró utca;47.447260;19.068739;;;;2;179
91338;Benczúr utca;47.512402;19.079600;;;;1;-37
91799;Budafok kocsiszín;47.440454;19.036306;;;;2;6
91816;Angyalföld vasútállomás;47.550363;19.091315;;;;1;14
91817;Angyalföld vasútállomás;47.549906;19.090953;;;;1;-159
91821;Angyalföld vasútállomás;47.550037;19.090853;;;;1;-160
93021;Kelenföld vasútállomás M;47.464743;19.023003;93021;;CS007899;1;98
94273;Normafa;47.503373;18.964966;;;;2;
96830;Jogar utca;47.435114;19.013117;;;;1;13
96989;Fehér út, MOL-töltőállomás;47.500755;19.136788;;;;;
97847;Mogyoródi út, VB telephely;47.507317;19.113635;;;;;
98518;Diósd, Kaktusz utca;47.415027;18.951217;;;;2;-32
98526;Diósd, Kaktusz utca;47.414632;18.951447;;;;2;141
98527;Törökbálint, Telenor;47.430124;18.935170;;;;1;-15
98531;Farkashegyi repülőtér;47.490163;18.909369;;;;2;-149
98532;Farkashegyi repülőtér;47.489854;18.909282;;;;2;31
98535;Budaörs, Gábor Dénes körút;47.470912;18.901412;;;;2;-174
98536;Budaörs, Gábor Dénes körút;47.471798;18.901757;;;;2;5
98538;Raktárbázis;47.464025;18.900557;;;;2;-178
98540;Raktárbázis;47.465083;18.900849;;;;2;5
98674;Baross Gábor utca;47.436562;18.915588;;;;2;-4
98882;Budakeszi, Tesco áruház;47.499404;18.915098;;;;2;131
98921;Gubacsi út VB telephely;47.465388;19.086774;;;;;
99012;Budakeszi, Tesco áruház;47.499502;18.915257;;;;1;-55
99342;Kossuth Lajos tér M;47.506185;19.049094;;;;1;-4
99343;Kossuth Lajos tér M;47.506003;19.049645;;;;1;-98
99344;Szemere utca;47.506596;19.050619;;;;1;82
99629;Bikás park M;47.463737;19.032434;;;;1;-79
99630;Bikás park M;47.463603;19.033309;;;;1;101
99631;Bártfai utca;47.464205;19.028906;;;;1;-83
99632;Bártfai utca;47.464088;19.029635;;;;1;101
99633;Kelenföld vasútállomás M;47.463943;19.023097;;;;1;-169
99634;Kelenföld vasútállomás M;47.464473;19.023388;;;;1;6
99640;Kőbánya-Kispest M;47.462058;19.150555;;;;;
100836;Iglice utca / Jutas utca [9];47.577718;19.022364;;;;2;28
100837;Kőpor köz / Jutas utca [7];47.580964;19.018281;;;;2;-53
100838;Kőpor köz / Jutas utca [7];47.580892;19.018215;;;;2;127
101178;Szigetszentmiklós, városháza;47.348981;19.045586;;;;2;30
101179;Rákóczi utca;47.348872;19.050468;;;;1;137
101180;Föveny utca;47.350230;19.057828;;;;2;78
101181;Béke utca;47.352019;19.062635;;;;2;45
101182;Teleki utca;47.353773;19.059324;;;;2;-76
101183;Sport utca;47.352092;19.056415;;;;2;-128
101184;Dunaharaszti utca;47.349496;19.053633;;;;2;-139
101185;Sport Vendéglő;47.348252;19.049714;;;;2;-117
101594;WP-056169;47.582485;19.025937;;;;;
102283;Wein János út;47.456524;19.071027;;;;2;-91
102568;Rózsakert utca / Minta utca;47.403155;19.010169;;;;1;-144
102569;Rózsakert utca / Minta utca;47.403776;19.011043;;;;1;37
102825;Örs vezér tere M+H;47.505315;19.136268;;;;2;-159
103053;Budaörsi lakótelep;47.455747;18.941160;;;;1;30
103386;Balatoni út / Háros utca;47.433059;19.005476;;;;1;18
103387;Balatoni út / Háros utca;47.432116;19.005231;;;;1;37
103388;Balatoni út / Háros utca;47.431865;19.004616;;;;1;-164
103389;Balatoni út / Háros utca;47.431788;19.004903;;;;1;-172
103897;Liget sor;47.488046;19.244402;;;;2;98
105507;Cargo City;47.430323;19.270282;;;;2;37
105925;Deák Ferenc tér M;47.497414;19.054803;;;;1;139
106324;Szlacsányi Ferenc utca;47.574430;19.126124;;;;2;128
106325;Szlacsányi Ferenc utca;47.574529;19.126130;;;;2;-52
106388;Mélyfúró utca;47.577689;19.129660;;;;2;-51
106390;KÖKI-Regina tároló;47.464388;19.142967;;;;;
107571;Kvassay híd;47.457182;19.071008;;;;2;
107799;Budakeszi temető;47.514028;18.922403;;;;2;96
108430;Csömöri út,MOL töltőállomás;47.526122;19.121190;;;;;
108475;Vecsés, M0 MOL töltőállomás;47.383920;19.283063;;;;;
108555;Budaörs,M1-M7 MOL (jobb pálya);47.452884;18.957025;;;;;
108563;Budakeszi,Budaörsi út MOL;47.502768;18.920931;;;;;
108742;Kvassay híd H;47.458357;19.071223;;;;2;-77
108743;Kvassay híd H;47.458013;19.071172;;;;2;179
109234;Kőbányai út,MOL töltőállomás;47.482459;19.124160;;;;;
109518;Vihorlát út;47.389241;19.100066;;;;1;-68
109519;Vihorlát út;47.389118;19.100179;;;;1;112
109728;Párkány utca;47.534409;19.062404;;;;1;106
109729;Dagály utcai lakótelep;47.536311;19.065065;;;;1;22
109790;Weiss M.út,MOL töltőállomás;47.458175;19.071526;;;;;
109849;Doboz utca;47.602194;19.052845;;;;1;90
109949;Vágány u., MOL töltőállomás;47.522340;19.081139;;;;;
109989;Széll Kálmán tér M;47.505733;19.024793;;;;1;12
109990;Széll Kálmán tér M;47.507755;19.027185;;;;1;38
110144;Gödöllő, autóbusz-állomás;47.599396;19.352975;;;;2;76
110283;Mogyoród útja;47.570618;19.128888;;;;2;-58
110284;Pentelényi János utca;47.571152;19.132685;;;;2;-55
110285;Kosd utca;47.571865;19.131003;;;;2;127
110452;Nemzetközi Posta Kicserélő Központ;47.427631;19.265759;;;;2;-47
110633;Prielle K.u.MOL-töltőállomás;47.468708;19.049216;;;;;
110758;Bogáncs utca;47.570896;19.132948;;;;2;125
CS007899;Kelenföld vasútállomás;47.464757;19.023003;CS007899;1;;;
CS009630;Budakalász, Auchan áruház;47.611515;19.062365;CS009630;1;;;
CS009703;Közvágóhíd;47.467693;19.076536;CS009703;1;;;
CS044214;Cinkota;47.519630;19.217810;CS044214;1;;;
CS050182;Duna utca;47.433466;19.220657;CS050182;1;;;
CS050183;Pestszentlőrinc, Béke tér;47.429664;19.218271;CS050183;1;;;
CS056230;Rákóczi tér;47.492722;19.071817;CS056230;1;;;
CS056232;II. János Pál pápa tér;47.495300;19.077244;CS056232;1;;;
CS074021;Kőbányai garázs (Salgótarjáni kapu);47.491013;19.114231;CS074021;1;;;
CSF00062;Batthyány tér;47.506422;19.038927;CSF00062;1;;;
CSF00094;Déli pályaudvar;47.500375;19.024802;CSF00094;1;;;
CSF00097;Ág utca;47.495669;19.029466;CSF00097;1;;;
CSF00140;Szépvölgyi út;47.527302;19.040168;CSF00140;1;;;
CSF00185;Margit híd, budai hídfő;47.515375;19.039380;CSF00185;1;;;
CSF00471;Békásmegyer;47.598090;19.054599;CSF00471;1;;;
CSF00481;Csillaghegy;47.586110;19.045005;CSF00481;1;;;
CSF00483;Aquincum;47.567254;19.048727;CSF00483;1;;;
CSF00487;Rómaifürdő;47.575685;19.048568;CSF00487;1;;;
CSF00511;Kaszásdűlő;47.556773;19.045253;CSF00511;1;;;
CSF00568;Bécsi út / Vörösvári út;47.548489;19.028968;CSF00568;1;;;
CSF00579;Filatorigát;47.551903;19.046243;CSF00579;1;;;
CSF00625;Szentlélek tér;47.539636;19.047161;CSF00625;1;;;
CSF00632;Tímár utca;47.533963;19.044643;CSF00632;1;;;
CSF00678;Óbudai autóbuszgarázs;47.568005;19.026289;CSF00678;1;;;
CSF00897;Újpest-városkapu;47.558926;19.079229;CSF00897;1;;;
CSF00913;Újpest-központ;47.560429;19.089916;CSF00913;1;;;
CSF00958;Kossuth Lajos tér;47.505475;19.046620;CSF00958;1;;;
CSF00960;Deák Ferenc tér;47.497567;19.054433;CSF00960;1;;;
CSF00997;Bajcsy-Zsilinszky út;47.499875;19.055326;CSF00997;1;;;
CSF00999;Március 15. tér;47.490870;19.051641;CSF00999;1;;;
CSF01019;Astoria;47.494364;19.060024;CSF01019;1;;;
CSF01093;Vörösmarty utca;47.507212;19.066322;CSF01093;1;;;
CSF01096;Kodály körönd;47.509234;19.069341;CSF01096;1;;;
CSF01101;Bajza utca;47.511320;19.072495;CSF01101;1;;;
CSF01108;Károly körút (Astoria M);47.495524;19.060167;CSF01108;1;;;
CSF01282;Népliget;47.475441;19.098808;CSF01282;1;;;
CSF01415;Kén utca;47.454906;19.086556;CSF01415;1;;;
CSF01493;Ecseri út;47.470920;19.111329;CSF01493;1;;;
CSF01541;Határ út;47.465295;19.126651;CSF01541;1;;;
CSF01543;Kőbánya-Kispest;47.463622;19.148115;CSF01543;1;;;
CSF01820;Rákosfalva;47.505066;19.151378;CSF01820;1;;;
CSF01878;Pöttyös utca;47.468548;19.116946;CSF01878;1;;;
CSF02481;Széll Kálmán tér;47.506982;19.024828;CSF02481;1;;;
CSF02680;Dózsa György út;47.524609;19.063348;CSF02680;1;;;
CSF02684;Gyöngyösi utca;47.548691;19.073233;CSF02684;1;;;
CSF03293;Cinkota alsó;47.526364;19.220986;CSF03293;1;;;
CSF03409;Árpádföld;47.532978;19.212553;CSF03409;1;;;
CSF03411;Szabadságtelep;47.537404;19.206185;CSF03411;1;;;
CSF03416;Mátyásföld alsó;47.515986;19.207455;CSF03416;1;;;
CSF03417;Mátyásföld, Imre utca;47.513545;19.199582;CSF03417;1;;;
CSF03419;Mátyásföld, repülőtér;47.511857;19.194054;CSF03419;1;;;
CSF03421;Ilonatelep;47.526627;19.229402;CSF03421;1;;;
CSF03423;Nagyicce;47.507016;19.167690;CSF03423;1;;;
CSF03425;Sashalom;47.508952;19.178647;CSF03425;1;;;
CSF03785;Duna utca;47.433025;19.220582;CSF03785;1;;;
CSF03788;Pestszentlőrinc, Béke tér;47.429499;19.218401;CSF03788;1;;;
CSF03884;Bajcsy-Zsilinszky út;47.433169;19.206499;CSF03884;1;;;
CSF03930;Határ út;47.465146;19.127237;CSF03930;1;;;
CSF04052;Torontál utca;47.423191;19.105208;CSF04052;1;;;
CSF04150;Pesterzsébet felső;47.438159;19.093611;CSF04150;1;;;
CSF04183;Karácsony Sándor utca;47.426802;19.067283;CSF04183;1;;;
CSF04272;Csepel;47.421163;19.065786;CSF04272;1;;;
CSF04319;Szent Imre tér;47.431322;19.067656;CSF04319;1;;;
CSF04369;Szabadkikötő;47.444476;19.071612;CSF04369;1;;;
CSF04534;Soroksár felső;47.409659;19.111925;CSF04534;1;;;
CSF04540;Soroksár, Hősök tere;47.399309;19.114780;CSF04540;1;;;
CSF04546;Szent István utca;47.391672;19.114910;CSF04546;1;;;
CSF04548;Millenniumtelep;47.379741;19.104897;CSF04548;1;;;
CSF04607;Dunaharaszti felső;47.366371;19.092655;CSF04607;1;;;
CSF04610;Dunaharaszti külső;47.360269;19.086422;CSF04610;1;;;
CSF04611;Szigetszentmiklós;47.344206;19.050241;CSF04611;1;;;
CSF04613;József Attila-telep;47.337095;19.034336;CSF04613;1;;;
CSF04615;Szigetszentmiklós alsó;47.336444;19.019615;CSF04615;1;;;
CSF04618;Szigetszentmiklós-Gyártelep;47.333720;19.004259;CSF04618;1;;;
CSF04619;Szigethalom;47.330041;18.993868;CSF04619;1;;;
CSF04621;Szigethalom alsó;47.321368;18.983529;CSF04621;1;;;
CSF04623;Tököl;47.313402;18.974231;CSF04623;1;;;
CSF04627;Szigetcsép;47.270231;18.956263;CSF04627;1;;;
CSF04632;Szigetszentmárton-Szigetújfalu;47.227924;18.946067;CSF04632;1;;;
CSF04634;Horgásztanyák;47.213582;18.952953;CSF04634;1;;;
CSF04636;Angyalisziget;47.199808;18.945065;CSF04636;1;;;
CSF04655;Csömör;47.544998;19.225051;CSF04655;1;;;
CSF04656;Kistarcsa, kórház;47.539065;19.249034;CSF04656;1;;;
CSF04658;Kistarcsa;47.545831;19.259801;CSF04658;1;;;
CSF04660;Zsófialiget;47.548442;19.264069;CSF04660;1;;;
CSF04662;Kerepes;47.553092;19.270897;CSF04662;1;;;
CSF04664;Szilasliget;47.568488;19.275036;CSF04664;1;;;
CSF04668;Mogyoród;47.596326;19.271728;CSF04668;1;;;
CSF04670;Szentjakab;47.597338;19.290352;CSF04670;1;;;
CSF04672;Gödöllő, Erzsébet park;47.595072;19.340770;CSF04672;1;;;
CSF04675;Gödöllő, Szabadság tér;47.597666;19.347925;CSF04675;1;;;
CSF04676;Gödöllő, Palotakert;47.598489;19.356648;CSF04676;1;;;
CSF04679;Gödöllő;47.593336;19.357774;CSF04679;1;;;
CSF04688;Pannóniatelep;47.652191;19.064901;CSF04688;1;;;
CSF04690;Pomáz;47.642960;19.032361;CSF04690;1;;;
CSF04693;Budakalász, Lenfonó;47.621778;19.046752;CSF04693;1;;;
CSF04695;Budakalász;47.616164;19.054920;CSF04695;1;;;
CSF04793;Szentistvántelep;47.628802;19.043332;CSF04793;1;;;
CSL008159;Forgách utca;47.539383;19.069597;CSL008159;1;;;
CSLM1HTV;Hősök tere;47.514255;19.076844;CSLM1HTV;1;;;
CSLM1MUV;Mexikói út;47.519611;19.091089;CSLM1MUV;1;;;
CSLM1OKV;Oktogon;47.505083;19.063168;CSLM1OKV;1;;;
CSLM1OPV;Opera;47.502244;19.058873;CSLM1OPV;1;;;
CSLM1SFV;Széchenyi fürdő;47.517498;19.080980;CSLM1SFV;1;;;
CSLM1VTV;Vörösmarty tér;47.496803;19.050579;CSLM1VTV;1;;;
CSLM2BLA;Blaha Lujza tér;47.497097;19.070595;CSLM2BLA;1;;;
CSLM2OVE;Örs vezér tere;47.503187;19.136309;CSLM2OVE;1;;;
CSLM2PF1;Puskás Ferenc Stadion;47.500266;19.105988;CSLM2PF1;1;;;
CSLM2PU2;Pillangó utca;47.501310;19.120057;CSLM2PU2;1;;;
CSLM3AHG;Göncz Árpád városközpont;47.532666;19.066857;CSLM3AHG;1;;;
CSLM3LED;Lehel tér;47.517635;19.060404;CSLM3LED;1;;;
CSLM3NTF;Nagyvárad tér;47.479151;19.089586;CSLM3NTF;1;;;
CSLM4BP1;Bikás park;47.465005;19.033383;CSLM4BP1;1;;;
CSLM4FT1;Fővám tér;47.486401;19.057320;CSLM4FT1;1;;;
CSLM4KFD;Kelenföld vasútállomás;47.464299;19.019717;CSLM4KFD;1;;;
CSLM4KVA;Kálvin tér;47.489573;19.061620;CSLM4KVA;1;;;
CSLM4MKF;Móricz Zsigmond körtér;47.477362;19.047272;CSLM4MKF;1;;;
CSLM4SG1;Szent Gellért tér - Műegyetem;47.483245;19.054249;CSLM4SG1;1;;;
CSLM4UK1;Újbuda-központ;47.473931;19.046312;CSLM4UK1;1;;;
CSLMXKPB;Keleti pályaudvar;47.500090;19.081794;CSLMXKPB;1;;;
F00001;Mihály utca;47.486079;19.034561;;;;2;-69
F00002;Zsolt utca;47.490477;19.030486;;;;2;0
F00003;Zsolt utca;47.490540;19.030395;;;;1;180
F00004;Mészáros utca;47.488273;19.031033;;;;1;75
F00005;Mészáros utca;47.488606;19.031564;;;;1;-102
F00006;Sánc utca;47.490037;19.036208;;;;1;166
F00007;Sánc utca;47.489542;19.035491;;;;2;60
F00008;Sánc utca;47.489632;19.035717;;;;1;-120
F00009;Sánc utca;47.489425;19.035836;;;;1;62
F00010;Szirtes út;47.487663;19.036460;;;;2;53
F00011;Szirtes út;47.488238;19.037084;;;;1;-138
F00012;Búsuló Juhász (Citadella);47.485594;19.039551;;;;2;-80
F00013;Királyhágó utca;47.494928;19.023055;;;;1;84
F00014;Királyhágó utca;47.494442;19.023929;;;;1;-4
F00015;Királyhágó utca;47.494839;19.023732;;;;1;-4
F00016;Királyhágó utca;47.495566;19.023015;;;;1;-96
F00017;Királyhágó utca;47.496016;19.023490;;;;2;-179
F00018;Királyhágó utca;47.495669;19.023612;;;;1;180
F00019;Nagyenyed utca;47.498029;19.023858;;;;1;-175
F00020;Nagyenyed utca;47.498335;19.024011;;;;1;5
F00021;Déli pályaudvar M;47.499614;19.023793;;;;2;
F00022;Déli pályaudvar M;47.499686;19.024208;;;;2;1
F00023;Déli pályaudvar M;47.500001;19.023809;;;;1;-180
F00024;Déli pályaudvar M;47.500848;19.024021;;;;1;-178
F00025;Déli pályaudvar M;47.501106;19.024177;;;;1;3
F00026;Déli pályaudvar M;47.500801;19.024990;;;;2;131
F00027;Déli pályaudvar M;47.501071;19.024671;;;;2;-50
F00028;Körmöci utca;47.504372;19.024988;;;;1;-33
F00029;Körmöci utca;47.504138;19.024989;;;;1;149
F00030;Mátray utca;47.505965;19.028598;;;;1;-82
F00032;Széna tér;47.507979;19.029261;;;;1;-86
F00033;Széna tér;47.507782;19.028184;;;;1;108
F00034;Fazekas utca;47.508268;19.034372;;;;1;9
F00035;Fazekas utca;47.507989;19.034133;;;;1;-171
F00036;Fazekas utca;47.507773;19.033443;;;;1;-92
F00045;Donáti utca;47.501307;19.036072;;;;1;-32
F00047;Clark Ádám tér;47.498312;19.039816;;;;1;-82
F00048;Clark Ádám tér;47.498132;19.040041;;;;1;59
F00049;Clark Ádám tér;47.497722;19.040644;;;;1;
F00051;Halász utca;47.502260;19.039815;;;;1;173
F00052;Halász utca;47.501784;19.040028;;;;1;-8
F00053;Halász utca;47.502558;19.039747;;;;2;-7
F00056;Halász utca;47.501739;19.038966;;;;1;164
F00057;Batthyány tér M+H;47.506002;19.039456;;;;1;-4
F00059;Batthyány tér M+H;47.505885;19.038023;;;;1;-175
F00062;Batthyány tér;47.507412;19.036739;F00062;;CSF00062;2;-63
F00063;Batthyány tér;47.506826;19.038103;F00063;;CSF00062;2;117
F00064;Batthyány tér M+H;47.506613;19.038872;;;;1;101
F00065;Batthyány tér M+H (Bem rakpart);47.507423;19.039270;;;;1;
F00066;Batthyány tér M+H;47.506209;19.039071;;;;1;165
F00067;Batthyány tér M+H;47.505948;19.038567;;;;1;-97
F00068;Mária tér;47.506703;19.034797;;;;1;102
F00069;Bécsi kapu tér;47.504553;19.030683;;;;1;10
F00070;Bécsi kapu tér;47.504751;19.030324;;;;1;-100
F00071;Szentháromság tér;47.501324;19.033710;;;;1;160
F00072;Szentháromság tér;47.501306;19.033896;;;;1;-20
F00073;Dísz tér;47.499373;19.035993;;;;1;-47
F00074;Dísz tér;47.498950;19.036113;;;;1;144
F00076;Palota út, gyorslift;47.495182;19.038529;;;;2;138
F00077;Dózsa György tér;47.494732;19.037720;;;;1;-87
F00078;Dózsa György tér;47.494435;19.037944;;;;1;-48
F00079;Dózsa György tér;47.493860;19.037494;;;;1;131
F00080;Dózsa György tér;47.493770;19.038224;;;;2;130
F00081;Dózsa György tér;47.493698;19.038463;;;;2;-47
F00082;Alagút utca;47.497853;19.032981;;;;1;-44
F00083;Krisztina tér;47.496899;19.033406;;;;1;75
F00084;Alagút utca;47.496567;19.034415;;;;1;138
F00085;Krisztina tér;47.496881;19.032117;;;;2;120
F00086;Krisztina tér;47.496621;19.032847;;;;2;-51
F00087;Krisztina tér;47.496899;19.032742;;;;1;-105
F00088;Mikó utca;47.499246;19.030830;;;;1;135
F00089;Mikó utca;47.498365;19.028997;;;;2;-55
F00090;Mikó utca;47.498374;19.028747;;;;2;127
F00091;Korlát utca;47.501917;19.027405;;;;1;-38
F00092;Korlát utca;47.501719;19.027432;;;;1;137
F00093;Déli pályaudvar;47.499373;19.024769;F00093;;CSF00094;2;159
F00094;Déli pályaudvar;47.500450;19.024604;F00094;;CSF00094;2;-5
F00095;Győri út;47.495252;19.025269;;;;2;-99
F00096;Győri út;47.495207;19.025813;;;;2;81
F00097;Ág utca;47.495675;19.029451;F00097;;CSF00097;1;-145
F00098;Ág utca;47.495451;19.029425;;;;1;39
F00099;Róka utca;47.494209;19.028879;;;;2;158
F00100;Naphegy tér;47.493445;19.032478;;;;1;-114
F00101;Várkert Bazár;47.493114;19.043161;;;;1;
F00102;Szarvas tér;47.492492;19.042355;;;;1;-64
F00103;Döbrentei tér;47.491486;19.043705;;;;1;132
F00104;Döbrentei tér;47.491243;19.043612;;;;1;126
F00105;Döbrentei tér;47.491737;19.043373;;;;1;-53
F00106;Várkert Bazár;47.493536;19.044169;;;;1;-29
F00107;Várkert Bazár;47.493186;19.044315;;;;1;151
F00108;Rudas Gyógyfürdő;47.489840;19.047208;;;;1;144
F00110;Döbrentei tér;47.490074;19.044767;;;;1;83
F00111;Rudas Gyógyfürdő;47.489273;19.046916;;;;1;-69
F00112;Rudas Gyógyfürdő;47.489075;19.046903;;;;1;
F00113;Döbrentei tér;47.490182;19.046863;;;;2;-107
F00114;Kapisztrán tér;47.504157;19.029302;;;;1;142
F00115;Szanatórium utca (Vadaspark);47.520539;18.938771;;;;1;-172
F00116;Szanatórium utca (Vadaspark);47.520206;18.938865;;;;1;12
F00117;Kökörcsin utca;47.577030;18.938375;;;;1;-22
F00118;Kökörcsin utca;47.576041;18.938842;;;;2;155
F00119;Fenyőgyöngye;47.540316;19.006138;;;;2;160
F00120;Nyereg út;47.537279;19.014083;;;;1;-39
F00121;Nyereg út;47.537593;19.013551;;;;1;147
F00122;Pál-völgyi cseppkőbarlang;47.533160;19.016503;;;;1;-49
F00123;Pál-völgyi cseppkőbarlang;47.532881;19.016755;;;;2;128
F00124;Csalit utca;47.529481;19.016412;;;;1;-93
F00125;Csalit utca;47.529338;19.017116;;;;1;90
F00126;Virág Benedek utca;47.530635;19.027062;;;;1;-64
F00127;Szépvölgyi út;47.530770;19.026424;;;;2;114
F00128;Folyondár utca;47.529466;19.030077;;;;1;-62
F00129;Folyondár utca (Szépvölgyi út);47.529215;19.030475;;;;1;119
F00130;Ürömi utca;47.528172;19.033304;;;;1;-68
F00131;Ürömi utca;47.528010;19.033357;;;;1;112
F00132;Kolosy tér;47.527722;19.036650;;;;1;172
F00133;Kolosy tér;47.527839;19.036876;;;;1;-102
F00135;Kolosy tér;47.527983;19.037660;;;;1;9
F00136;Kolosy tér;47.527687;19.037474;;;;1;-172
F00137;Kolosy tér;47.528586;19.039001;;;;1;14
F00138;Kolosy tér;47.526913;19.038204;;;;2;-171
F00139;Szépvölgyi út;47.527195;19.040181;F00139;;CSF00140;2;11
F00140;Szépvölgyi út;47.527410;19.040155;F00140;;CSF00140;2;-168
F00141;Margitsziget / Margit híd;47.514717;19.042521;;;;1;-93
F00142;Margitsziget / Margit híd;47.514439;19.044327;;;;1;118
F00143;Margitsziget / Margit híd;47.515986;19.043995;;;;1;13
F00144;Margitsziget / Margit híd;47.515779;19.043743;;;;1;-167
F00146;Margitsziget / Margit híd;47.514629;19.043264;;;;2;88
F00147;Labanc út;47.518988;18.981633;;;;1;-76
F00148;Labanc út;47.518970;18.980982;;;;1;102
F00149;Dénes utca;47.521633;18.968511;;;;1;-77
F00150;Dénes utca;47.521624;18.967940;;;;1;111
F00151;Baba utca;47.524228;19.013255;;;;1;-64
F00152;Baba utca;47.524237;19.012936;;;;1;116
F00153;Garas utca;47.511549;19.019194;;;;2;131
F00154;Garas utca;47.511280;19.019845;;;;2;-49
F00155;Városmajor;47.509568;19.014008;;;;1;-74
F00156;Városmajor;47.509595;19.013212;;;;2;-74
F00157;Városmajor;47.509550;19.013012;;;;2;104
F00158;Városmajor;47.509505;19.013690;;;;1;106
F00159;Szent János Kórház;47.510357;19.008366;;;;1;-46
F00160;Nagyajtai utca;47.513548;19.003093;;;;1;-51
F00161;Nagyajtai utca;47.513548;19.002854;;;;2;-48
F00162;Nagyajtai utca;47.513674;19.002655;;;;2;135
F00163;Nagyajtai utca;47.513548;19.002642;;;;2;131
F00164;Budagyöngye;47.516038;18.999533;;;;1;-46
F00165;Budagyöngye;47.516092;18.999188;;;;2;-43
F00166;Budagyöngye;47.516663;18.997968;;;;2;124
F00167;Budagyöngye;47.516146;18.998975;;;;2;137
F00168;Szépilona;47.517664;18.995110;;;;1;-78
F00169;Szépilona;47.517494;18.992955;;;;1;88
F00170;Szépilona;47.517520;18.995270;;;;1;102
F00171;Kuruclesi út;47.518462;18.985346;;;;1;-78
F00172;Kuruclesi út;47.518432;18.984581;;;;1;103
F00173;Vízművek;47.520170;18.973333;;;;1;-77
F00174;Vízművek;47.520036;18.973360;;;;1;99
F00175;Bölcsőde;47.523625;18.962055;;;;1;-63
F00176;Bölcsőde;47.523661;18.961524;;;;2;117
F00177;Irén utca;47.524594;18.958747;;;;1;-78
F00178;Irén utca;47.524468;18.958734;;;;2;102
F00179;Szépjuhászné, Gyermekvasút;47.527298;18.954068;;;;1;-32
F00180;Szépjuhászné, Gyermekvasút;47.527073;18.954042;;;;1;146
F00181;Laktanya;47.526789;18.948279;;;;1;-148
F00182;Laktanya;47.526663;18.948412;;;;1;32
F00183;Országos Korányi Intézet;47.522736;18.941568;;;;1;-121
F00184;Országos Korányi Intézet;47.522367;18.941158;;;;1;58
F00185;Margit híd, budai hídfő;47.515843;19.039533;F00185;;CSF00185;2;1
F00186;Margit híd, budai hídfő;47.514908;19.039227;F00186;;CSF00185;2;-178
F00187;Bem József tér;47.512046;19.039322;;;;1;5
F00188;Bem József tér;47.511308;19.038221;;;;1;176
F00189;Margit híd, budai hídfő H;47.514546;19.038897;;;;1;88
F00190;Margit híd, budai hídfő H;47.514420;19.038831;;;;1;72
F00191;Margit híd, budai hídfő H;47.514654;19.036653;;;;1;-92
F00192;Margit híd, budai hídfő H;47.514618;19.038193;;;;1;-92
F00193;Horvát utca;47.511119;19.034570;;;;1;-7
F00194;Horvát utca;47.510238;19.034451;;;;1;177
F00195;Mechwart liget;47.511353;19.032247;;;;1;-63
F00196;Mechwart liget;47.511236;19.032074;;;;2;125
F00197;Mechwart liget;47.510534;19.030548;;;;1;-116
F00198;Mechwart liget;47.510778;19.031462;;;;1;-119
F00199;Mechwart liget;47.510939;19.032114;;;;1;64
F00200;Mechwart liget;47.510516;19.031225;;;;2;64
F00201;Füge utca;47.513933;19.027387;;;;1;-72
F00202;Füge utca;47.513942;19.026750;;;;1;107
F00203;Rét utca;47.514589;19.024294;;;;1;-49
F00204;Rét utca;47.514715;19.023855;;;;1;136
F00205;Ady Endre utca;47.516802;19.024293;;;;1;-46
F00206;Ady Endre utca;47.516640;19.024186;;;;1;132
F00207;Tapolcsányi utca;47.517504;19.021143;;;;1;-103
F00208;Tapolcsányi utca;47.517368;19.020907;;;;1;100
F00209;Eszter utca;47.520111;19.021914;;;;1;-26
F00210;Eszter utca;47.520084;19.021729;;;;1;154
F00211;Vend utca;47.521685;19.020480;;;;1;-56
F00212;Vend utca;47.521082;19.021064;;;;1;154
F00213;Pusztaszeri körönd;47.523213;19.017398;;;;1;-107
F00214;Pusztaszeri körönd;47.523087;19.017730;;;;1;80
F00215;Pusztaszeri körönd;47.522826;19.017452;;;;1;-59
F00216;Pusztaszeri körönd;47.522682;19.017478;;;;1;121
F00217;Vend utca;47.523591;19.020359;;;;1;-101
F00218;Vend utca;47.523456;19.020611;;;;1;75
F00219;Pusztaszeri út;47.524347;19.023001;;;;1;-23
F00220;Cimbalom utca;47.524060;19.023054;;;;1;157
F00221;Vérhalom tér;47.520903;19.025140;;;;1;-3
F00222;Vérhalom tér;47.520579;19.024769;;;;1;92
F00223;Vérhalom utca;47.519816;19.028845;;;;1;17
F00224;Mandula utca;47.519609;19.028620;;;;1;-163
F00225;Sarolta utca;47.522453;19.031803;;;;2;-111
F00226;Kavics utca;47.521149;19.031870;;;;2;0
F00227;Vérhalom utca;47.519063;19.033424;;;;2;4
F00228;Szemlőhegy utca;47.516919;19.027798;;;;1;-66
F00229;Rómer Flóris utca;47.516748;19.027930;;;;1;114
F00230;Zivatar utca;47.515607;19.031714;;;;1;-61
F00231;Zivatar utca;47.515715;19.031170;;;;1;119
F00232;Margit körút;47.513817;19.033945;;;;2;135
F00233;Apostol utca;47.514609;19.033215;;;;1;-43
F00234;Margit híd, budai hídfő H;47.515985;19.039521;;;;1;-11
F00235;Margit híd, budai hídfő H;47.515365;19.039282;;;;1;169
F00236;Margit híd, budai hídfő H;47.515041;19.038937;;;;1;104
F00237;Margit híd, budai hídfő H;47.515518;19.038339;;;;1;-2
F00239;Szent Lukács Gyógyfürdő;47.517118;19.036520;;;;1;-19
F00240;Szent Lukács Gyógyfürdő;47.516822;19.036507;;;;1;161
F00241;Komjádi Béla utca;47.520626;19.036825;;;;1;10
F00242;Komjádi Béla utca;47.520343;19.036590;;;;1;-170
F00243;Zsigmond tér;47.524251;19.036930;;;;1;0
F00244;Zsigmond tér;47.523954;19.036824;;;;1;180
F00245;Zsigmond tér;47.524991;19.037951;;;;1;10
F00246;Zsigmond tér;47.524053;19.037421;;;;1;-170
F00247;Császár-Komjádi uszoda;47.521409;19.038272;;;;1;2
F00248;Császár-Komjádi uszoda;47.519610;19.038046;;;;1;174
F00249;Felhévízi utca;47.526579;19.030224;;;;1;-93
F00250;Felhévízi utca;47.526993;19.031392;;;;2;-5
F00251;Pusztaszeri út 25.;47.527784;19.028470;;;;1;-61
F00252;Pusztaszeri út 25.;47.527451;19.028444;;;;1;162
F00253;Alsó Zöldmáli út;47.528378;19.027328;;;;1;-1
F00254;Alsó Zöldmáli út;47.528180;19.027076;;;;1;178
F00255;Szemlő-hegyi-barlang;47.528791;19.024420;;;;1;-92
F00256;Szemlő-hegyi-barlang;47.528710;19.024168;;;;1;88
F00257;Zöldmáli lejtő;47.528610;19.021645;;;;1;-101
F00258;Zöldmáli lejtő;47.528502;19.021605;;;;1;79
F00259;Zöldkert út;47.529543;19.011127;;;;1;-81
F00260;Zöldkert út;47.529381;19.011074;;;;1;98
F00261;Pitypang utca;47.530037;19.008683;;;;1;-76
F00262;Pitypang utca;47.529803;19.009042;;;;1;108
F00264;Verecke lépcső;47.529019;19.004288;;;;1;-63
F00265;Verecke lépcső;47.529117;19.003624;;;;1;97
F00266;Verecke lépcső;47.529027;19.002548;;;;1;-111
F00267;Tömörkény utca;47.527437;19.007649;;;;1;-29
F00268;Tömörkény utca;47.527185;19.007702;;;;1;151
F00269;Móricz Zsigmond Gimnázium;47.525387;19.009988;;;;1;-62
F00270;Móricz Zsigmond Gimnázium;47.525522;19.009310;;;;1;123
F00271;Vöröstorony lépcső;47.531354;18.997248;;;;1;-53
F00272;Vöröstorony lépcső;47.530905;18.998032;;;;1;122
F00273;Nagybányai út;47.533628;18.993368;;;;1;157
F00276;Pasaréti tér;47.523636;18.994268;;;;1;-42
F00277;Pasaréti tér;47.523707;18.993139;;;;1;
F00278;Pasaréti tér;47.523500;18.992834;;;;2;-130
F00279;Pasaréti tér;47.523519;18.993126;;;;1;50
F00280;Harangvirág utca;47.521794;18.997536;;;;1;-46
F00281;Harangvirág utca;47.521398;18.997881;;;;1;135
F00282;Virág árok;47.519178;19.000990;;;;2;-32
F00283;Virág árok;47.519501;19.000446;;;;2;138
F00284;Gábor Áron utca / Pasaréti út;47.516193;19.004525;;;;1;-23
F00285;Gábor Áron utca / Pasaréti út;47.516742;19.003940;;;;1;152
F00286;Júlia utca;47.514243;19.007221;;;;2;-38
F00287;Júlia utca;47.514665;19.006491;;;;2;128
F00288;Vasas sportpálya;47.511940;19.008418;;;;1;-40
F00289;Vasas sportpálya;47.511464;19.008896;;;;1;124
F00290;Fenyves utca;47.523363;19.002297;;;;2;-41
F00291;Fenyves utca;47.523219;19.002430;;;;2;95
F00292;Tüske utca;47.521197;19.006362;;;;2;-12
F00293;Bimbó köz;47.521799;19.005565;;;;2;125
F00294;Gábor Áron utca;47.519642;19.010466;;;;2;-62
F00295;Endrődi Sándor utca;47.521071;19.012168;;;;1;49
F00296;Lóczy Lajos utca;47.519039;19.009617;;;;2;-174
F00297;Hankóczy Jenő utca;47.516889;19.008902;;;;2;132
F00298;Zilah utca;47.515604;19.011558;;;;2;133
F00299;Detrekő utca;47.517349;19.012433;;;;2;-35
F00300;Balogvár utca;47.515396;19.014549;;;;2;-35
F00301;Ruszti út;47.514993;19.014572;;;;2;37
F00302;Rókushegyi lépcső;47.512889;19.017056;;;;2;-50
F00303;Lorántffy Zsuzsanna út;47.512574;19.017388;;;;2;130
F00304;Ezredes utca;47.510452;19.021067;;;;2;131
F00305;Fény utcai piac;47.508275;19.023766;;;;1;98
F00306;Széna tér;47.508484;19.026989;;;;2;-141
F00307;Széna tér;47.508114;19.026739;;;;1;-143
F00308;Széna tér;47.508483;19.027323;;;;1;37
F00309;Széna tér;47.508376;19.027374;;;;2;37
F00310;Kelemen László utca;47.522421;18.989152;;;;2;137
F00311;Kelemen László utca;47.521667;18.990427;;;;2;-45
F00312;Kelemen László utca;47.521970;18.990313;;;;2;-43
F00313;Kelemen László utca;47.521682;18.990539;;;;2;138
F00314;Zuhatag sor;47.526078;18.985992;;;;2;-32
F00315;Zuhatag sor;47.526114;18.985806;;;;2;148
F00316;Nagyhíd;47.528541;18.983692;;;;2;-32
F00317;Nagyhíd;47.528245;18.983825;;;;2;148
F00318;Vadaskerti utca;47.531796;18.980992;;;;2;-30
F00319;Vadaskerti utca;47.531885;18.980780;;;;2;145
F00320;Budenz út;47.520290;18.988862;;;;2;98
F00321;Szent Ferenc Kórház;47.525983;18.976870;;;;1;133
F00322;Tárogató út;47.527435;18.979439;;;;2;-123
F00323;Bölöni György utca;47.525772;18.984479;;;;1;-45
F00324;Bölöni György utca;47.525816;18.984213;;;;1;135
F00325;Szerb Antal utca;47.528081;18.981422;;;;1;-33
F00326;Szerb Antal utca;47.528324;18.980970;;;;1;140
F00327;Lipótmezei út;47.530490;18.978816;;;;1;-36
F00328;Lipótmezei út;47.531002;18.978058;;;;1;143
F00329;Nyéki út;47.534771;18.973917;;;;2;-46
F00330;Nyéki út;47.534507;18.973990;;;;1;133
F00331;Csibor utca;47.536690;18.969139;;;;1;-64
F00332;Csibor utca;47.536070;18.970574;;;;1;120
F00339;Bátori László utca;47.544673;18.963548;;;;1;11
F00340;Bátori László utca;47.544528;18.963362;;;;1;-21
F00345;Heinrich István utca;47.539299;18.970955;;;;2;-71
F00346;Heinrich István utca;47.539263;18.970742;;;;2;109
F00347;Völgy utca;47.536739;18.975395;;;;2;-36
F00348;Völgy utca;47.536415;18.975621;;;;2;142
F00350;Ady lépcső;47.543425;18.945020;;;;2;134
F00351;Adyliget;47.547259;18.938264;;;;1;-61
F00352;Adyliget;47.546963;18.938730;;;;1;119
F00353;Villám utca;47.545042;18.952482;;;;1;-156
F00354;Villám utca;47.545204;18.952734;;;;1;24
F00355;Nagyrét utca;47.546566;18.952831;;;;2;67
F00356;Bükkfa utca;47.546460;18.960477;;;;1;-71
F00357;Bükkfa utca;47.546478;18.960012;;;;1;109
F00358;Hunyadi János utca;47.548568;18.964777;;;;1;-5
F00359;Hunyadi János utca;47.548037;18.964619;;;;2;175
F00360;Kossuth Lajos utca;47.552138;18.964307;;;;1;7
F00361;Kossuth Lajos utca;47.552039;18.964107;;;;1;-165
F00362;Kerényi Frigyes utca;47.553017;18.949359;;;;1;-11
F00363;Kerényi Frigyes utca;47.553079;18.949186;;;;1;169
F00364;Ábránd utca;47.551310;18.947242;;;;2;-11
F00365;Ábránd utca;47.551598;18.947002;;;;2;167
F00366;Turul utca;47.548119;18.949719;;;;2;-35
F00367;Turul utca;47.548308;18.949360;;;;2;146
F00368;Széchenyi utca;47.547714;18.954457;;;;1;-67
F00369;Széchenyi utca;47.547535;18.954630;;;;1;113
F00370;Turul utca (kishíd);47.548944;18.951784;;;;1;-31
F00371;Turul utca (kishíd);47.548881;18.951678;;;;1;149
F00372;Gondozási Központ;47.514371;19.015505;;;;1;-33
F00373;Gondozási Központ;47.514121;19.015622;;;;2;147
F00374;Arany János utca;47.554736;18.946079;;;;2;-11
F00375;Arany János utca;47.554853;18.945907;;;;2;169
F00376;Szirom utca;47.557960;18.940333;;;;2;-54
F00377;Szirom utca;47.557682;18.940706;;;;2;123
F00378;Kerekhegyi utca;47.559859;18.941910;;;;2;68
F00379;Kerekhegyi utca;47.560372;18.942016;;;;2;158
F00380;Máriaremetei kegytemplom;47.562786;18.946090;;;;2;-33
F00381;Máriaremetei kegytemplom;47.562408;18.945732;;;;2;-119
F00382;Köztársaság utca;47.566112;18.942934;;;;2;-33
F00383;Köztársaság utca;47.566417;18.942349;;;;2;148
F00384;Honfoglalás utca;47.568772;18.940391;;;;2;-31
F00385;Honfoglalás utca;47.568852;18.940151;;;;2;149
F00387;Budaliget, Géza fejedelem útja;47.567706;18.936260;;;;2;-104
F00388;Csatlós utca;47.558251;18.948844;;;;1;-4
F00389;Csatlós utca;47.558772;18.948591;;;;1;171
F00390;Máriaremetei kegytemplom;47.562612;18.947587;;;;1;-12
F00391;Máriaremetei kegytemplom;47.562171;18.947588;;;;1;168
F00392;Bölény utca;47.564925;18.950028;;;;1;50
F00393;Bölény utca;47.565357;18.950452;;;;1;-135
F00394;Solymári elágazás;47.566764;18.955273;;;;1;-59
F00395;Solymári elágazás;47.566800;18.954915;;;;1;121
F00396;Szarvashegy utca;47.569250;18.948757;;;;1;-60
F00397;Szarvashegy utca;47.569241;18.948558;;;;1;120
F00398;Örökzöld utca;47.572304;18.944432;;;;2;-31
F00399;Örökzöld utca;47.571855;18.944712;;;;2;149
F00400;Templom utca (Kultúrkúria);47.564538;18.960194;;;;1;-68
F00401;Templom utca (Kultúrkúria);47.564591;18.959649;;;;1;113
F00402;Községház utca;47.562427;18.963254;;;;1;-25
F00403;Községház utca;47.562962;18.962741;;;;1;157
F00404;Mikszáth Kálmán utca;47.559154;18.965664;;;;1;-31
F00405;Mikszáth Kálmán utca;47.559712;18.965132;;;;1;155
F00406;Kölcsey utca;47.555269;18.965923;;;;2;20
F00407;Kölcsey utca;47.555674;18.965935;;;;2;-161
F00408;Szent János Kórház;47.509594;19.010039;;;;2;28
F00409;Szent János Kórház;47.509728;19.009813;;;;2;89
F00410;Szent János Kórház;47.509818;19.009800;;;;1;84
F00411;Szent János Kórház;47.509837;19.009411;;;;2;-90
F00412;Széll Kálmán tér M;47.507673;19.024615;;;;1;-88
F00414;Kelemen László utca;47.522240;18.990804;;;;1;51
F00415;Kelemen László utca;47.522366;18.990764;;;;1;-128
F00416;Széher út 16.;47.521951;18.984624;;;;2;137
F00417;Bölöni György utca / Széher út;47.524126;18.980545;;;;2;125
F00422;Széll Kálmán tér M;47.507475;19.023859;;;;1;80
F00423;Vöröstorony utca;47.528558;18.999495;;;;1;-96
F00424;Vöröstorony utca;47.528450;18.999800;;;;1;83
F00425;Nyúl utca;47.508723;19.018044;;;;2;-79
F00426;Nyúl utca;47.508669;19.017872;;;;2;101
F00427;Nyúl utca;47.509002;19.017008;;;;1;-79
F00428;Nyúl utca;47.508625;19.018867;;;;1;102
F00429;Akadémia;47.519534;18.993449;;;;1;-45
F00430;Akadémia;47.519337;18.993900;;;;2;135
F00431;Akadémia;47.518914;18.994153;;;;1;135
F00432;Akadémia;47.519292;18.994126;;;;2;-45
F00433;Tücsök utca;47.585487;18.997590;;;;2;-36
F00434;Tücsök utca;47.585460;18.997430;;;;2;141
F00435;Pusztadombi utca;47.602488;19.056793;;;;2;-62
F00436;Égető utca;47.604054;19.052418;;;;2;-67
F00437;Táncsics Mihály utca;47.602723;19.051234;;;;2;-157
F00438;Gulácsy Lajos utca;47.602642;19.048242;;;;2;28
F00439;Gulácsy Lajos utca;47.602534;19.048003;;;;2;-152
F00440;Szőlőkert utca;47.554889;19.040682;;;;2;-166
F00441;Szőlőkert utca;47.554633;19.040776;;;;1;14
F00442;Donát utca;47.604207;19.043933;;;;2;103
F00443;Bojtár utca 49.;47.559440;19.039791;;;;2;-79
F00444;Bojtár utca 49.;47.559517;19.038171;;;;2;100
F00445;Templom utca;47.600312;19.046620;;;;2;22
F00446;Templom utca;47.600123;19.046354;;;;2;-158
F00447;Hősök tere;47.598153;19.043987;;;;2;-64
F00448;Hősök tere;47.597839;19.044652;;;;2;113
F00449;Tamás utca;47.599601;19.041154;;;;2;-62
F00450;Tamás utca;47.599385;19.041447;;;;2;118
F00451;Pince köz;47.601572;19.036089;;;;2;-152
F00452;Hősök tere;47.597596;19.045662;;;;2;4
F00453;Hősök tere;47.598063;19.045569;;;;2;-176
F00454;Zemplén Győző utca;47.596121;19.045530;;;;2;5
F00455;Zemplén Győző utca;47.595419;19.045317;;;;2;-178
F00456;Nád utca;47.593989;19.049120;;;;2;90
F00457;Nád utca;47.594115;19.048442;;;;2;-82
F00458;Pünkösdfürdő utca;47.594962;19.051673;;;;1;-153
F00459;Pünkösdfürdő utca;47.594908;19.051833;;;;1;27
F00460;Békásmegyer H;47.598126;19.054266;;;;2;27
F00461;Békásmegyer H;47.597883;19.054080;;;;2;26
F00462;Szolgáltatóház;47.601212;19.058056;;;;1;25
F00463;Szolgáltatóház;47.601213;19.057923;;;;1;-155
F00464;Hímző utca;47.597200;19.058734;;;;2;-83
F00465;Hímző utca;47.597047;19.059505;;;;2;95
F00466;Medgyessy Ferenc utca;47.594890;19.058162;;;;1;96
F00467;Medgyessy Ferenc utca;47.595079;19.056766;;;;1;-81
F00468;Békásmegyer H;47.597471;19.056261;;;;1;-64
F00469;Békásmegyer H;47.598146;19.055822;;;;2;-156
F00471;Békásmegyer;47.598594;19.055064;F00471;;CSF00471;2;26
F00472;Békásmegyer;47.597587;19.054133;F00472;;CSF00471;2;-155
F00473;Madzsar József utca / Pünkösdfürdő utca;47.595277;19.054425;;;;1;-85
F00474;Madzsar József utca / Pünkösdfürdő utca;47.595124;19.054572;;;;2;101
F00475;Madzsar József utca / Pünkösdfürdő utca;47.594861;19.053747;;;;2;23
F00476;Madzsar József utca / Pünkösdfürdő utca;47.594690;19.052790;;;;2;-155
F00477;Szent István utca;47.592415;19.052111;;;;2;25
F00478;Csillaghegy H;47.585804;19.047125;;;;2;100
F00479;Csillaghegy H;47.586110;19.045371;;;;2;-78
F00480;Csillaghegy;47.585948;19.044932;F00480;;CSF00481;2;26
F00481;Csillaghegy;47.586272;19.045078;F00481;;CSF00481;2;-153
F00482;Szent István utca;47.590814;19.049851;;;;2;-122
F00483;Aquincum;47.567968;19.048641;F00483;;CSF00483;2;-15
F00484;Aquincum;47.566541;19.048814;F00484;;CSF00483;2;179
F00485;Római tér;47.569797;19.048509;;;;1;-8
F00486;Monostori út;47.573140;19.050621;;;;2;97
F00487;Rómaifürdő;47.576225;19.048721;F00487;;CSF00487;2;6
F00488;Rómaifürdő;47.575145;19.048415;F00488;;CSF00487;2;-174
F00489;Rómaifürdő H;47.575562;19.049067;;;;1;6
F00490;Czetz János köz;47.578653;19.050502;;;;2;91
F00491;Czetz János köz;47.578737;19.050130;;;;2;-89
F00492;Czetz János köz;47.578998;19.048961;;;;1;-176
F00493;Attila utca;47.579328;19.052762;;;;2;24
F00494;Attila utca;47.579697;19.052895;;;;2;-145
F00495;Huba utca;47.581342;19.054477;;;;2;22
F00496;Huba utca;47.581657;19.054543;;;;2;-149
F00497;Hunyadi utca;47.584949;19.056099;;;;2;12
F00498;Hunyadi utca;47.584805;19.055900;;;;2;-168
F00499;Pók utca;47.565278;19.057970;;;;2;-80
F00500;Dósa utca;47.575751;19.056723;;;;1;-84
F00501;Dósa utca;47.575598;19.057560;;;;1;96
F00502;Kadosa utca;47.571260;19.054130;;;;2;101
F00504;Sujtás utca;47.563461;19.050927;;;;2;20
F00505;Záhony utca;47.561375;19.048229;;;;2;48
F00506;Záhony utca;47.562206;19.048163;;;;1;12
F00507;Záhony utca;47.560974;19.047140;;;;1;-166
F00508;Kaszásdűlő H;47.557098;19.046170;;;;1;14
F00509;Kaszásdűlő H;47.556567;19.045533;;;;1;-165
F00510;Kaszásdűlő;47.556508;19.045133;F00510;;CSF00511;2;25
F00511;Kaszásdűlő;47.557039;19.045372;F00511;;CSF00511;2;-158
F00512;Kaszásdűlő utca;47.557642;19.041678;;;;2;-166
F00513;Kaszásdűlő utca;47.558289;19.042063;;;;2;15
F00514;Dinamó utca;47.563968;19.036284;;;;1;25
F00515;Kunigunda útja;47.560105;19.033545;;;;2;101
F00516;Kunigunda útja;47.560362;19.035022;;;;2;-167
F00517;Kunigunda útja;47.559930;19.035594;;;;1;-80
F00518;Orbán Balázs út;47.555809;19.026945;;;;1;-19
F00519;Orbán Balázs út;47.556403;19.026307;;;;1;153
F00520;Bojtár utca (Bécsi út);47.560099;19.024711;;;;1;-15
F00521;Bojtár utca;47.559002;19.024898;;;;1;162
F00522;Óbudai temető;47.566232;19.021931;;;;1;-27
F00523;Óbudai temető;47.565923;19.023258;;;;2;43
F00524;Óbudai temető;47.565720;19.022755;;;;1;-137
F00529;Szőlővész utca;47.575818;19.013692;;;;1;141
F00530;Ürömhegyi út;47.577568;19.010637;;;;2;-56
F00531;Ürömhegyi út;47.577738;19.010013;;;;2;124
F00532;Üröm vasúti megállóhely;47.581522;19.002246;;;;2;-49
F00533;Üröm vasúti megállóhely;47.581684;19.001794;;;;2;131
F00534;Királyhelmec utca;47.553016;19.022440;;;;2;132
F00535;Farkastorki út;47.553803;19.021193;;;;2;134
F00536;Királyhelmec utca;47.553510;19.021868;;;;2;-46
F00537;Judit utca;47.556113;19.018256;;;;2;-46
F00538;Judit utca;47.556005;19.018282;;;;2;134
F00539;Laborc utca;47.557758;19.015544;;;;2;-54
F00540;Laborc utca;47.557633;19.015638;;;;2;126
F00541;Jablonka út 53.;47.558945;19.013152;;;;2;-53
F00542;Jablonka út 58.;47.559071;19.012753;;;;2;134
F00543;Jablonka út 73.;47.560500;19.010959;;;;2;-39
F00544;Jablonka út 74.;47.560266;19.011131;;;;2;141
F00545;Jablonka út;47.562091;19.008167;;;;2;-11
F00546;Erdőalja út;47.559451;19.006597;;;;2;87
F00547;Áldomás utca;47.561846;19.035580;;;;2;9
F00548;Áldomás utca;47.562026;19.035513;;;;1;-170
F00549;Kubik utca;47.562554;19.023634;;;;1;-16
F00550;Kubik utca;47.561331;19.023820;;;;1;152
F00551;Hedvig utca;47.556066;19.011267;;;;2;-31
F00552;Hedvig utca;47.556066;19.011148;;;;2;149
F00553;Erdőalja út 43.;47.553513;19.014006;;;;2;-28
F00554;Viharhegyi út;47.552654;19.014442;;;;2;154
F00555;Viharhegyi út;47.553113;19.014349;;;;2;-13
F00556;Körtvélyes köz;47.553338;19.017351;;;;2;-82
F00557;Körtvélyes utca;47.553217;19.017367;;;;2;98
F00558;Óbudai temető;47.564380;19.022503;;;;1;164
F00559;Iskola;47.550401;19.016067;;;;2;-49
F00560;Iskola;47.550168;19.016306;;;;2;125
F00561;Királylaki út;47.549056;19.014843;;;;2;-54
F00562;Királylaki út;47.548813;19.015122;;;;2;124
F00563;Máramaros út;47.546588;19.017132;;;;2;121
F00564;Táborhegyi út;47.550156;19.025896;;;;2;-50
F00565;Táborhegyi út;47.549711;19.026363;;;;1;137
F00566;Bécsi út / Vörösvári út;47.548659;19.027812;;;;1;-46
F00567;Bécsi út / Vörösvári út;47.547895;19.029632;;;;1;72
F00568;Bécsi út / Vörösvári út;47.548489;19.028994;F00568;;CSF00568;1;
F00569;Bécsi út / Vörösvári út;47.548766;19.029370;;;;1;
F00570;Bécsi út / Vörösvári út;47.548381;19.029565;;;;1;142
F00573;Óbuda, Bogdáni út;47.550712;19.041826;;;;1;11
F00574;Óbuda, Bogdáni út;47.550541;19.042066;;;;1;-174
F00575;Óbuda, Bogdáni út;47.550127;19.041973;;;;1;171
F00576;Bogdáni út;47.550154;19.043979;;;;1;7
F00577;Bogdáni út;47.548409;19.043102;;;;1;-171
F00578;Filatorigát;47.551858;19.046356;F00578;;CSF00579;2;-27
F00579;Filatorigát;47.551948;19.046130;F00579;;CSF00579;2;153
F00580;Raktár utca;47.545288;19.042837;;;;1;10
F00581;Raktár utca;47.544947;19.042757;;;;1;10
F00582;Raktár utca;47.545085;19.042331;;;;2;
F00583;Raktár utca;47.544713;19.042212;;;;1;-170
F00584;Óbudai rendelőintézet;47.546735;19.032621;;;;1;-44
F00585;Óbudai rendelőintézet;47.545493;19.033634;;;;1;139
F00586;Óbudai rendelőintézet;47.545957;19.033456;;;;1;-42
F00587;Óbudai rendelőintézet;47.544878;19.034772;;;;1;137
F00588;Vihar utca;47.543987;19.036393;;;;2;-43
F00589;Szőlő utca;47.543529;19.036473;;;;2;134
F00590;Váradi utca;47.543524;19.029926;;;;1;171
F00591;Váradi utca;47.543830;19.029979;;;;1;-10
F00592;Váradi utca;47.543506;19.031466;;;;1;-102
F00594;Szent Margit Kórház;47.540646;19.030910;;;;1;-15
F00595;Szent Margit Kórház;47.540304;19.030923;;;;1;165
F00596;Szent Margit Kórház;47.539891;19.031348;;;;1;-16
F00597;Szent Margit Kórház;47.540367;19.030803;;;;1;166
F00598;Katinyi mártírok parkja;47.532615;19.036517;;;;1;-41
F00599;Katinyi mártírok parkja;47.532318;19.036703;;;;1;140
F00600;Katinyi mártírok parkja;47.532525;19.036716;;;;1;-40
F00601;Katinyi mártírok parkja;47.532399;19.036450;;;;1;143
F00602;Galagonya utca;47.530133;19.039386;;;;1;-165
F00603;Nagyszombat utca;47.531833;19.040023;;;;1;-8
F00604;Tímár utca;47.535152;19.039969;;;;1;2
F00605;Tímár utca;47.534333;19.039730;;;;1;180
F00606;Kiscelli utca;47.538723;19.040500;;;;1;12
F00607;Kiscelli utca;47.539244;19.040407;;;;1;-168
F00608;Remetehegyi út;47.535342;19.027243;;;;2;115
F00609;Mikoviny utca;47.532140;19.029051;;;;2;-20
F00610;Kőzet utca;47.532878;19.028453;;;;2;158
F00611;Flórián tér;47.542896;19.042252;;;;1;11
F00612;Flórián tér;47.541987;19.041190;;;;1;-166
F00613;Flórián tér;47.541664;19.040088;;;;1;-49
F00614;Flórián tér;47.541517;19.039960;;;;1;-50
F00615;Flórián tér;47.541109;19.040538;;;;1;135
F00616;Flórián tér;47.541672;19.039184;;;;1;140
F00617;ATI;47.570567;19.018314;;;;1;-30
F00618;ATI;47.569550;19.018939;;;;2;150
F00619;Szentlélek tér H;47.539883;19.045892;;;;1;-69
F00620;Szentlélek tér H;47.539802;19.046330;;;;1;-70
F00621;Szentlélek tér H;47.540210;19.045904;;;;2;-92
F00622;Szentlélek tér H;47.540165;19.046263;;;;2;-73
F00623;Szentlélek tér H;47.540126;19.046437;;;;1;-61
F00624;Szentlélek tér;47.539541;19.047207;F00624;;CSF00625;2;-2
F00625;Szentlélek tér;47.539730;19.047114;F00625;;CSF00625;2;178
F00626;Szentlélek tér H;47.539593;19.045207;;;;1;-73
